[
  {
    "name": "20 Mile",
    "url": "https://se.kiteforum.com/kitesurf/spot/20_Mile",
    "slug": "20_Mile",
    "country": "Alaska+(USA)",
    "lat": 60.8554,
    "lng": -149.0105,
    "wind_direction": "SW",
    "water_type": "Shallow, Flat, Chop",
    "difficulty": "Intermediate, Expert",
    "amenities": "None",
    "enriched": true
  },
  {
    "name": "2nd Ave North",
    "url": "https://se.kiteforum.com/kitesurf/spot/2nd_Ave_North",
    "slug": "2nd_Ave_North",
    "country": "Florida+(USA)",
    "lat": 26.1482,
    "lng": -81.8083,
    "wind_direction": "S, SSW, SW, WSW, W, WNW, NW, NNW",
    "water_type": "Flat, Chop, Small wave, Medium wave",
    "difficulty": "Beginner, Intermediate, Expert",
    "amenities": "School, Shop, Shower, Parking",
    "enriched": true
  },
  {
    "name": "39beach Rimini",
    "url": "https://se.kiteforum.com/kitesurf/spot/39beach_Rimini",
    "slug": "39beach_Rimini",
    "country": "Italy",
    "lat": 44.0658,
    "lng": 12.5878,
    "wind_direction": "N, NNE, NE, ENE, E, ESE, SE",
    "water_type": "Flat, Chop, Medium wave",
    "difficulty": "Beginner, Intermediate, Expert",
    "amenities": "Rooms, Shop, Shower, Toilet, Food, Parking",
    "enriched": true
  },
  {
    "name": "3rd ave",
    "url": "https://se.kiteforum.com/kitesurf/spot/3rd_ave",
    "slug": "3rd_ave",
    "country": "California+(USA)",
    "lat": 37.5734,
    "lng": -122.2793,
    "wind_direction": "NW",
    "water_type": "Shallow, Chop, Small wave, Medium wave",
    "difficulty": "Intermediate, Expert",
    "amenities": "Shop, Shower, Toilet, Food, Parking",
    "enriched": true
  },
  {
    "name": "7 chann beach  independence beach",
    "url": "https://se.kiteforum.com/kitesurf/spot/7_chann_beach__independence_beach_",
    "slug": "7_chann_beach__independence_beach_",
    "country": "Cambodia",
    "lat": 10.6134,
    "lng": 103.4992,
    "wind_direction": "No information",
    "water_type": "Flat, Chop",
    "difficulty": "Beginner, Intermediate, Expert",
    "amenities": "No information",
    "enriched": true
  },
  {
    "name": "907 Court Martial Ranch Road",
    "url": "https://se.kiteforum.com/kitesurf/spot/907_Court_Martial_Ranch_Road",
    "slug": "907_Court_Martial_Ranch_Road",
    "country": "Florida+(USA)",
    "lat": 30.1584,
    "lng": -85.7788,
    "wind_direction": "SE, S, SW, W",
    "water_type": "Chop, Small wave",
    "difficulty": "Beginner, Intermediate, Expert",
    "amenities": "Rooms, Rescue, Food, Parking",
    "enriched": true
  },
  {
    "name": "A Bay",
    "url": "https://se.kiteforum.com/kitesurf/spot/A_Bay",
    "slug": "A_Bay",
    "country": "Hawaii+(USA)",
    "lat": 19.9106,
    "lng": -155.8942,
    "wind_direction": "No information",
    "water_type": "Chop",
    "difficulty": "Beginner, Intermediate, Expert",
    "amenities": "Rooms, Shower, Toilet, Food, Parking",
    "enriched": true
  },
  {
    "name": "A Lanzada",
    "url": "https://se.kiteforum.com/kitesurf/spot/A_Lanzada",
    "slug": "A_Lanzada",
    "country": "Spain",
    "lat": 42.4408,
    "lng": -8.872,
    "wind_direction": "N, S, SSW, SW, WSW, NNW",
    "water_type": "Small wave, Medium wave",
    "difficulty": "Intermediate, Expert",
    "amenities": "Parking",
    "enriched": true
  },
  {
    "name": "Aadale",
    "url": "https://se.kiteforum.com/spot/Aadale__Ho_bugt__Esbjerg_",
    "slug": "Aadale__Ho_bugt__Esbjerg_",
    "country": "Denmark",
    "lat": 55.5098,
    "lng": 8.3782,
    "wind_direction": "S, SSW, SW, WSW, W, WNW, NW, NNW",
    "water_type": "Shallow, Flat, Chop",
    "difficulty": "Beginner, Intermediate, Expert",
    "amenities": "None",
    "enriched": true
  },
  {
    "name": "Abbekas Hamn",
    "url": "https://se.kiteforum.com/kitesurf/spot/Abbekas_Hamn",
    "slug": "Abbekas_Hamn",
    "country": "Sweden",
    "lat": 55.3934,
    "lng": 13.6016,
    "wind_direction": "E, ESE, SE, SSE, S",
    "water_type": "Shallow, Chop, Small wave",
    "difficulty": "Intermediate, Expert",
    "amenities": "Toilet, Parking",
    "enriched": true
  },
  {
    "name": "Aber Wrac h",
    "url": "https://se.kiteforum.com/kitesurf/spot/Aber_Wrac_h",
    "slug": "Aber_Wrac_h",
    "country": "France",
    "lat": 48.5983,
    "lng": -4.5639,
    "wind_direction": "N, NNE, NE",
    "water_type": "Flat, Chop",
    "difficulty": "Intermediate, Expert",
    "amenities": "Parking",
    "enriched": true
  },
  {
    "name": "Aberta a Nova",
    "url": "https://se.kiteforum.com/kitesurf/spot/Aberta_a_Nova",
    "slug": "Aberta_a_Nova",
    "country": "Portugal",
    "lat": 38.1774,
    "lng": -8.7814,
    "wind_direction": "N, NW, NNW",
    "water_type": "Small wave, Medium wave",
    "difficulty": "Intermediate, Expert",
    "amenities": "Toilet, Parking",
    "enriched": true
  },
  {
    "name": "Abou Mingar",
    "url": "https://se.kiteforum.com/kitesurf/spot/Abou_Mingar",
    "slug": "Abou_Mingar",
    "country": "Egypt",
    "lat": 27.2175,
    "lng": 33.8842,
    "wind_direction": "N, NW, NNW",
    "water_type": "Shallow, Flat",
    "difficulty": "Beginner, Intermediate, Expert",
    "amenities": "Shop",
    "enriched": true
  },
  {
    "name": "Abu Soma Riders",
    "url": "https://se.kiteforum.com/kitesurf/spot/Abu_Soma_Riders",
    "slug": "Abu_Soma_Riders",
    "country": "Egypt",
    "lat": 26.8148,
    "lng": 33.9479,
    "wind_direction": "NE, NW",
    "water_type": "Shallow, Flat, Small wave",
    "difficulty": "Beginner, Intermediate, Expert",
    "amenities": "Rooms, Camping, School, Repair, Rental, Rescue, Shower, Toilet, Food, Parking",
    "enriched": true
  },
  {
    "name": "Acevedo",
    "url": "https://se.kiteforum.com/kitesurf/spot/Acevedo",
    "slug": "Acevedo",
    "country": "Argentina",
    "lat": -37.9659,
    "lng": -57.5394,
    "wind_direction": "NNE, NE, SE, SSE",
    "water_type": "Chop, Small wave",
    "difficulty": "Intermediate, Expert",
    "amenities": "Rooms, Toilet, Food, Parking",
    "enriched": true
  },
  {
    "name": "Achakar",
    "url": "https://se.kiteforum.com/kitesurf/spot/Achakar",
    "slug": "Achakar",
    "country": "Morocco",
    "lat": 35.7287,
    "lng": -5.9469,
    "wind_direction": "No information",
    "water_type": "Medium wave",
    "difficulty": "Beginner, Intermediate, Expert",
    "amenities": "Shop, Repair, Rescue, Shower, Toilet, Food, Parking",
    "enriched": true
  },
  {
    "name": "Achill Island   Keel Lake",
    "url": "https://se.kiteforum.com/kitesurf/spot/Achill_Island___Keel_Lake",
    "slug": "Achill_Island___Keel_Lake",
    "country": "Ireland",
    "lat": 53.9825,
    "lng": -10.0585,
    "wind_direction": "S, SSW, SW",
    "water_type": "Flat, Chop",
    "difficulty": "Beginner, Intermediate, Expert",
    "amenities": "Rooms, Camping, School, Parking",
    "enriched": true
  },
  {
    "name": "Acores",
    "url": "https://se.kiteforum.com/kitesurf/spot/Acores",
    "slug": "Acores",
    "country": "Brazil",
    "lat": -27.7837,
    "lng": -48.5235,
    "wind_direction": "SE, SSE, S",
    "water_type": "Medium wave",
    "difficulty": "Intermediate, Expert",
    "amenities": "Rooms",
    "enriched": true
  },
  {
    "name": "Adelka beach",
    "url": "https://se.kiteforum.com/kitesurf/spot/Adelka_beach",
    "slug": "Adelka_beach",
    "country": "Turkey",
    "lat": 38.3285,
    "lng": 26.7018,
    "wind_direction": "W, WNW, NW, NNW",
    "water_type": "Shallow, Flat",
    "difficulty": "Beginner, Intermediate, Expert",
    "amenities": "Parking",
    "enriched": true
  },
  {
    "name": "Aeropuerto",
    "url": "https://se.kiteforum.com/kitesurf/spot/Aeropuerto",
    "slug": "Aeropuerto",
    "country": "Colombia",
    "lat": 11.118,
    "lng": -74.2331,
    "wind_direction": "N, NNE",
    "water_type": "Flat, Chop, Small wave",
    "difficulty": "Intermediate, Expert",
    "amenities": "Toilet, Food",
    "enriched": true
  },
  {
    "name": "Affenruecken Point",
    "url": "https://se.kiteforum.com/kitesurf/spot/Affenruecken_Point",
    "slug": "Affenruecken_Point",
    "country": "Namibia",
    "lat": -27.9325,
    "lng": 15.6756,
    "wind_direction": "S, SSW, SW",
    "water_type": "Small wave, Medium wave",
    "difficulty": "Intermediate, Expert",
    "amenities": "None",
    "enriched": true
  },
  {
    "name": "Agate Beach1d",
    "url": "https://se.kiteforum.com/kitesurf/spot/Agate_Beach1d",
    "slug": "Agate_Beach1d",
    "country": "Oregon+(USA)",
    "lat": 44.6591,
    "lng": -124.0584,
    "wind_direction": "NW",
    "water_type": "Medium wave",
    "difficulty": "Intermediate, Expert",
    "amenities": "Rooms, Toilet, Food, Parking",
    "enriched": true
  },
  {
    "name": "Agger",
    "url": "https://se.kiteforum.com/spot/agger",
    "slug": "agger",
    "country": "Denmark",
    "lat": 56.7837,
    "lng": 8.2298,
    "wind_direction": "SSE, S",
    "water_type": "Medium wave",
    "difficulty": "Intermediate, Expert",
    "amenities": "Parking",
    "enriched": true
  },
  {
    "name": "Agger Lake",
    "url": "https://se.kiteforum.com/spot/agger_lake",
    "slug": "agger_lake",
    "country": "Denmark",
    "lat": 56.7973,
    "lng": 8.2594,
    "wind_direction": "SW, WSW, W, WNW, NW",
    "water_type": "Shallow, Flat, Chop",
    "difficulty": "Beginner, Intermediate, Expert",
    "amenities": "Parking",
    "enriched": true
  },
  {
    "name": "Agia Anna  Evia  Greece",
    "url": "https://se.kiteforum.com/kitesurf/spot/Agia_Anna__Evia__Greece",
    "slug": "Agia_Anna__Evia__Greece",
    "country": "Greece",
    "lat": 38.8662,
    "lng": 23.4428,
    "wind_direction": "No information",
    "water_type": "Chop, Small wave, Medium wave",
    "difficulty": "Beginner, Intermediate, Expert",
    "amenities": "Rooms, Camping, Shower, Toilet, Food, Parking",
    "enriched": true
  },
  {
    "name": "Agrelo beach",
    "url": "https://se.kiteforum.com/kitesurf/spot/Agrelo_beach",
    "slug": "Agrelo_beach",
    "country": "Spain",
    "lat": 42.3347,
    "lng": -8.7687,
    "wind_direction": "N, NW, NNW",
    "water_type": "Flat, Chop, Small wave, Medium wave",
    "difficulty": "Beginner, Intermediate, Expert",
    "amenities": "Rooms, Shop, Rescue, Shower, Toilet, Food, Parking",
    "enriched": true
  },
  {
    "name": "Agrilaopotamos",
    "url": "https://se.kiteforum.com/kitesurf/spot/Agrilaopotamos",
    "slug": "Agrilaopotamos",
    "country": "Greece",
    "lat": 35.4297,
    "lng": 27.1107,
    "wind_direction": "NNW",
    "water_type": "Flat, Chop, Small wave",
    "difficulty": "Intermediate, Expert",
    "amenities": "School, Shop, Rental, Rescue, Shower, Toilet, Food, Parking",
    "enriched": true
  },
  {
    "name": "Ahl",
    "url": "https://se.kiteforum.com/spot/ahl",
    "slug": "ahl",
    "country": "Denmark",
    "lat": 56.1769,
    "lng": 10.6396,
    "wind_direction": "No information",
    "water_type": "Shallow, Flat, Chop, Small wave",
    "difficulty": "Beginner, Intermediate, Expert",
    "amenities": "No information",
    "enriched": true
  },
  {
    "name": "Ahrenshoop",
    "url": "https://se.kiteforum.com/spot/ahrenshoop",
    "slug": "ahrenshoop",
    "country": "Germany",
    "lat": 54.3789,
    "lng": 12.4117,
    "wind_direction": "SW, WSW, W",
    "water_type": "Chop, Small wave, Medium wave",
    "difficulty": "Expert",
    "amenities": "No information",
    "enriched": true
  },
  {
    "name": "Aitutaki   Lagoon Resort",
    "url": "https://se.kiteforum.com/kitesurf/spot/Aitutaki___Lagoon_Resort",
    "slug": "Aitutaki___Lagoon_Resort",
    "country": "Cook+Islands",
    "lat": -18.8505,
    "lng": -159.7601,
    "wind_direction": "E, ESE, SE, SSE, S",
    "water_type": "Shallow, Flat",
    "difficulty": "Beginner, Intermediate, Expert",
    "amenities": "Rooms, Food",
    "enriched": true
  },
  {
    "name": "Aitutaki Akaiami",
    "url": "https://se.kiteforum.com/kitesurf/spot/Aitutaki_Akaiami",
    "slug": "Aitutaki_Akaiami",
    "country": "Cook+Islands",
    "lat": -18.9061,
    "lng": -159.7297,
    "wind_direction": "E, ESE, SE, SSE, S",
    "water_type": "Shallow, Flat",
    "difficulty": "Beginner, Intermediate, Expert",
    "amenities": "Rooms, Food",
    "enriched": true
  },
  {
    "name": "Aitutaki One Foot Island",
    "url": "https://se.kiteforum.com/kitesurf/spot/Aitutaki_One_Foot_Island",
    "slug": "Aitutaki_One_Foot_Island",
    "country": "Cook+Islands",
    "lat": -18.9483,
    "lng": -159.7329,
    "wind_direction": "E, ESE, SE, SSE, S",
    "water_type": "Shallow, Flat",
    "difficulty": "Beginner, Intermediate, Expert",
    "amenities": "Rooms, Food",
    "enriched": true
  },
  {
    "name": "Akdeniz",
    "url": "https://se.kiteforum.com/kitesurf/spot/Akdeniz",
    "slug": "Akdeniz",
    "country": "Cyprus",
    "lat": 35.2984,
    "lng": 32.9401,
    "wind_direction": "ENE, E, ESE",
    "water_type": "Chop, Small wave, Medium wave",
    "difficulty": "Intermediate, Expert",
    "amenities": "None",
    "enriched": true
  },
  {
    "name": "Akrasanden",
    "url": "https://se.kiteforum.com/kitesurf/spot/Akrasanden",
    "slug": "Akrasanden",
    "country": "Norway",
    "lat": 59.2495,
    "lng": 5.1943,
    "wind_direction": "N, NNE, NE, SSW, SW, WSW, W, WNW, NW, NNW",
    "water_type": "Shallow, Medium wave",
    "difficulty": "Intermediate, Expert",
    "amenities": "Food, Parking",
    "enriched": true
  },
  {
    "name": "Akrogen",
    "url": "https://se.kiteforum.com/spot/akrogen",
    "slug": "akrogen",
    "country": "Denmark",
    "lat": 56.2039,
    "lng": 10.2844,
    "wind_direction": "No information",
    "water_type": "Flat, Chop",
    "difficulty": "No information",
    "amenities": "No information",
    "enriched": true
  },
  {
    "name": "Al Ahia",
    "url": "https://se.kiteforum.com/kitesurf/spot/Al_Ahia",
    "slug": "Al_Ahia",
    "country": "Egypt",
    "lat": 27.3039,
    "lng": 33.7431,
    "wind_direction": "N, NW, NNW",
    "water_type": "Shallow, Flat",
    "difficulty": "Beginner, Intermediate, Expert",
    "amenities": "Rooms, Repair, Shower, Toilet, Food, Parking",
    "enriched": true
  },
  {
    "name": "Alabota",
    "url": "https://se.kiteforum.com/kitesurf/spot/Alabota",
    "slug": "Alabota",
    "country": "Russia",
    "lat": 53.9215,
    "lng": 73.8108,
    "wind_direction": "No information",
    "water_type": "Flat, Chop, Small wave",
    "difficulty": "Beginner, Intermediate, Expert",
    "amenities": "No information",
    "enriched": true
  },
  {
    "name": "Alacati End of Bay",
    "url": "https://se.kiteforum.com/kitesurf/spot/Alacati_End_of_Bay",
    "slug": "Alacati_End_of_Bay",
    "country": "Turkey",
    "lat": 38.2605,
    "lng": 26.3854,
    "wind_direction": "SE, SSE, S",
    "water_type": "Shallow, Flat, Chop",
    "difficulty": "Beginner, Intermediate, Expert",
    "amenities": "None",
    "enriched": true
  },
  {
    "name": "Alacati Kitebeach",
    "url": "https://se.kiteforum.com/kitesurf/spot/Alacati_Kitebeach",
    "slug": "Alacati_Kitebeach",
    "country": "Turkey",
    "lat": 38.2463,
    "lng": 26.4015,
    "wind_direction": "N, NW, NNW",
    "water_type": "Shallow, Flat, Chop",
    "difficulty": "Beginner, Intermediate, Expert",
    "amenities": "School",
    "enriched": true
  },
  {
    "name": "Alarcon",
    "url": "https://se.kiteforum.com/kitesurf/spot/Alarcon",
    "slug": "Alarcon",
    "country": "Spain",
    "lat": 39.7036,
    "lng": -2.2525,
    "wind_direction": "E, ESE, SE, SSE, SSW",
    "water_type": "Flat, Chop",
    "difficulty": "Beginner, Intermediate, Expert",
    "amenities": "Rooms, School, Rental, Rescue, Food, Parking",
    "enriched": true
  },
  {
    "name": "Albaek",
    "url": "https://se.kiteforum.com/spot/albaek",
    "slug": "albaek",
    "country": "Denmark",
    "lat": 57.5941,
    "lng": 10.4282,
    "wind_direction": "NE",
    "water_type": "No information",
    "difficulty": "Intermediate, Expert",
    "amenities": "No information",
    "enriched": true
  },
  {
    "name": "Albatros Hotel",
    "url": "https://se.kiteforum.com/kitesurf/spot/Albatros_Hotel",
    "slug": "Albatros_Hotel",
    "country": "Egypt",
    "lat": 27.1236,
    "lng": 33.8302,
    "wind_direction": "N, NNE, NE",
    "water_type": "Flat, Chop",
    "difficulty": "Beginner, Intermediate, Expert",
    "amenities": "Rooms, School, Repair, Rental, Rescue, Shower, Toilet, Food, Parking",
    "enriched": true
  },
  {
    "name": "Albatross",
    "url": "https://se.kiteforum.com/kitesurf/spot/Albatross",
    "slug": "Albatross",
    "country": "South+Africa",
    "lat": -34.0168,
    "lng": 24.9281,
    "wind_direction": "SE",
    "water_type": "Medium wave",
    "difficulty": "Expert",
    "amenities": "Parking",
    "enriched": true
  },
  {
    "name": "Alcan Beach",
    "url": "https://se.kiteforum.com/kitesurf/spot/Alcan_Beach",
    "slug": "Alcan_Beach",
    "country": "Canada",
    "lat": 53.9927,
    "lng": -128.6964,
    "wind_direction": "SE, SSE, S",
    "water_type": "Chop",
    "difficulty": "Beginner, Intermediate, Expert",
    "amenities": "Toilet, Parking",
    "enriched": true
  },
  {
    "name": "Alftanes",
    "url": "https://se.kiteforum.com/kitesurf/spot/Alftanes",
    "slug": "Alftanes",
    "country": "Iceland",
    "lat": 64.0898,
    "lng": -22.0104,
    "wind_direction": "No information",
    "water_type": "Flat, Chop",
    "difficulty": "Beginner, Intermediate",
    "amenities": "No information",
    "enriched": true
  },
  {
    "name": "Algarrobo",
    "url": "https://se.kiteforum.com/kitesurf/spot/Algarrobo",
    "slug": "Algarrobo",
    "country": "Chile",
    "lat": -33.3605,
    "lng": -71.6719,
    "wind_direction": "SW",
    "water_type": "Flat, Chop, Small wave",
    "difficulty": "Intermediate, Expert",
    "amenities": "Parking",
    "enriched": true
  },
  {
    "name": "Algodoes",
    "url": "https://se.kiteforum.com/kitesurf/spot/Algodoes",
    "slug": "Algodoes",
    "country": "Brazil",
    "lat": -14.078,
    "lng": -38.9543,
    "wind_direction": "NE, SE",
    "water_type": "Medium wave",
    "difficulty": "Intermediate, Expert",
    "amenities": "No information",
    "enriched": true
  },
  {
    "name": "Alkandstrand",
    "url": "https://se.kiteforum.com/kitesurf/spot/Alkandstrand",
    "slug": "Alkandstrand",
    "country": "South+Africa",
    "lat": -28.7994,
    "lng": 32.0982,
    "wind_direction": "NE, SW",
    "water_type": "Small wave, Medium wave, Big wave",
    "difficulty": "Intermediate, Expert",
    "amenities": "Parking",
    "enriched": true
  },
  {
    "name": "Alligator Point67",
    "url": "https://se.kiteforum.com/kitesurf/spot/Alligator_Point67",
    "slug": "Alligator_Point67",
    "country": "Florida+(USA)",
    "lat": 29.9068,
    "lng": -84.429,
    "wind_direction": "No information",
    "water_type": "Shallow, Flat, Chop",
    "difficulty": "Beginner, Intermediate, Expert",
    "amenities": "No information",
    "enriched": true
  },
  {
    "name": "Alligator Reef Light",
    "url": "https://se.kiteforum.com/kitesurf/spot/Alligator_Reef_Light",
    "slug": "Alligator_Reef_Light",
    "country": "Florida+(USA)",
    "lat": 24.8517,
    "lng": -80.6184,
    "wind_direction": "No information",
    "water_type": "Medium wave",
    "difficulty": "Expert",
    "amenities": "None",
    "enriched": true
  },
  {
    "name": "Almoe   Slaetthammar",
    "url": "https://se.kiteforum.com/kitesurf/spot/Almoe___Slaetthammar",
    "slug": "Almoe___Slaetthammar",
    "country": "Sweden",
    "lat": 56.14756,
    "lng": 15.441229,
    "wind_direction": "SSW",
    "water_type": "Flat, Chop",
    "difficulty": "Intermediate, Expert",
    "amenities": "Parking",
    "enriched": true
  },
  {
    "name": "Alro",
    "url": "https://se.kiteforum.com/spot/alro",
    "slug": "alro",
    "country": "Denmark",
    "lat": 55.8725,
    "lng": 10.1154,
    "wind_direction": "SW, WSW, W, WNW, NW",
    "water_type": "Shallow, Flat, Chop",
    "difficulty": "Beginner, Intermediate, Expert",
    "amenities": "Toilet, Parking",
    "enriched": true
  },
  {
    "name": "Als / Drejby",
    "url": "https://se.kiteforum.com/spot/Als___Drejby",
    "slug": "Als___Drejby",
    "country": "Denmark",
    "lat": 54.8666,
    "lng": 10.008,
    "wind_direction": "NE, ENE, E, ESE, SE, SSE, S",
    "water_type": "Chop, Small wave",
    "difficulty": "Beginner, Intermediate, Expert",
    "amenities": "Camping, Toilet, Parking",
    "enriched": true
  },
  {
    "name": "Als / Drejet Lillehav",
    "url": "https://se.kiteforum.com/spot/Als___Drejet_Lillehav",
    "slug": "Als___Drejet_Lillehav",
    "country": "Denmark",
    "lat": 54.855556,
    "lng": 9.992097,
    "wind_direction": "N, NNE, NE, ENE, E, ESE, SE, SSE, S, SSW, SW, WSW, W, WNW, NW, NNW",
    "water_type": "Shallow, Flat, Chop, Small wave, Medium wave",
    "difficulty": "Beginner, Intermediate, Expert",
    "amenities": "Camping, School, Toilet, Parking",
    "enriched": true
  },
  {
    "name": "Als / Mommark",
    "url": "https://se.kiteforum.com/spot/Als___Mommark",
    "slug": "Als___Mommark",
    "country": "Denmark",
    "lat": 54.92781,
    "lng": 10.04459,
    "wind_direction": "N, NNE, NE, SE, SSE, W",
    "water_type": "Chop, Small wave, Medium wave",
    "difficulty": "Intermediate, Expert",
    "amenities": "Camping, Toilet, Food, Parking",
    "enriched": true
  },
  {
    "name": "Amager / Poppelvej",
    "url": "https://se.kiteforum.com/spot/Amager___Poppelvej",
    "slug": "Amager___Poppelvej",
    "country": "Denmark",
    "lat": 55.5646,
    "lng": 12.6122,
    "wind_direction": "E, ESE, SE",
    "water_type": "Shallow, Flat, Small wave",
    "difficulty": "Beginner, Intermediate, Expert",
    "amenities": "None",
    "enriched": true
  },
  {
    "name": "Amager / Strandpark",
    "url": "https://se.kiteforum.com/spot/amager___strandpark",
    "slug": "amager___strandpark",
    "country": "Denmark",
    "lat": 55.6511,
    "lng": 12.6472,
    "wind_direction": "NE, ENE, E, ESE, SE",
    "water_type": "Shallow, Flat, Chop, Small wave",
    "difficulty": "Beginner, Intermediate, Expert",
    "amenities": "School, Shop, Rescue, Toilet, Food, Parking",
    "enriched": true
  },
  {
    "name": "Amager / Sydvestpynten",
    "url": "https://se.kiteforum.com/spot/amager___sydvest_pynten",
    "slug": "amager___sydvest_pynten",
    "country": "Denmark",
    "lat": 55.564,
    "lng": 12.56,
    "wind_direction": "S, SSW, SW, WSW, W",
    "water_type": "Shallow, Flat, Chop",
    "difficulty": "Beginner, Intermediate, Expert",
    "amenities": "School, Food, Parking",
    "enriched": true
  },
  {
    "name": "Amager / Sylten",
    "url": "https://se.kiteforum.com/spot/Amager___Sylten",
    "slug": "Amager___Sylten",
    "country": "Denmark",
    "lat": 55.5809,
    "lng": 12.6584,
    "wind_direction": "E, ESE, SE, SSE",
    "water_type": "Shallow, Flat, Chop",
    "difficulty": "Beginner, Intermediate, Expert",
    "amenities": "Parking",
    "enriched": true
  },
  {
    "name": "Amanpulo Island",
    "url": "https://se.kiteforum.com/kitesurf/spot/Amanpulo_Island",
    "slug": "Amanpulo_Island",
    "country": "Philippines",
    "lat": 11.3537,
    "lng": 120.7316,
    "wind_direction": "NE",
    "water_type": "Flat, Chop, Small wave",
    "difficulty": "Beginner, Intermediate, Expert",
    "amenities": "Rooms, Rescue, Shower, Toilet, Food",
    "enriched": true
  },
  {
    "name": "Ambury Park",
    "url": "https://se.kiteforum.com/kitesurf/spot/Ambury_Park",
    "slug": "Ambury_Park",
    "country": "New+Zealand",
    "lat": -36.9408,
    "lng": 174.7578,
    "wind_direction": "N, SW, WSW, W, WNW, NW, NNW",
    "water_type": "Shallow, Flat, Small wave",
    "difficulty": "Intermediate, Expert",
    "amenities": "Camping, Parking",
    "enriched": true
  },
  {
    "name": "Ammersee   Stegen",
    "url": "https://se.kiteforum.com/kitesurf/spot/Ammersee___Stegen",
    "slug": "Ammersee___Stegen",
    "country": "Germany",
    "lat": 48.07480270088761,
    "lng": 11.135926090322169,
    "wind_direction": "No information",
    "water_type": "Shallow, Flat, Chop",
    "difficulty": "Intermediate, Expert",
    "amenities": "Toilet, Food, Parking",
    "enriched": true
  },
  {
    "name": "Amores",
    "url": "https://se.kiteforum.com/kitesurf/spot/Amores",
    "slug": "Amores",
    "country": "Brazil",
    "lat": -26.9579,
    "lng": -48.6292,
    "wind_direction": "NNE, NE, SE",
    "water_type": "Small wave, Medium wave",
    "difficulty": "Beginner, Intermediate, Expert",
    "amenities": "Rooms, Parking",
    "enriched": true
  },
  {
    "name": "Amroth",
    "url": "https://se.kiteforum.com/kitesurf/spot/Amroth",
    "slug": "Amroth",
    "country": "Wales+(UK)",
    "lat": 51.7318,
    "lng": -4.6601,
    "wind_direction": "E, ESE, SE",
    "water_type": "Shallow, Chop, Small wave",
    "difficulty": "Beginner, Intermediate, Expert",
    "amenities": "Camping, Parking",
    "enriched": true
  },
  {
    "name": "Amrum / Nebeler Kniepsand",
    "url": "https://se.kiteforum.com/spot/amrum___nebeler_kniepsand",
    "slug": "amrum___nebeler_kniepsand",
    "country": "Germany",
    "lat": 54.6466,
    "lng": 8.3249,
    "wind_direction": "S, SSW, SW, NW",
    "water_type": "Shallow, Flat, Chop, Small wave, Medium wave",
    "difficulty": "Beginner, Intermediate, Expert",
    "amenities": "Toilet, Food, Parking",
    "enriched": true
  },
  {
    "name": "Amrum / Norddorfer Strand",
    "url": "https://se.kiteforum.com/spot/amrum___norddorfer_strand",
    "slug": "amrum___norddorfer_strand",
    "country": "Germany",
    "lat": 54.6876,
    "lng": 8.3222,
    "wind_direction": "N, SW, WSW, W, WNW, NW",
    "water_type": "Shallow, Flat, Chop, Small wave, Medium wave",
    "difficulty": "Beginner, Intermediate, Expert",
    "amenities": "Toilet, Parking",
    "enriched": true
  },
  {
    "name": "Amrum / Wittduen",
    "url": "https://se.kiteforum.com/spot/amrum___wittduen",
    "slug": "amrum___wittduen",
    "country": "Germany",
    "lat": 54.6272,
    "lng": 8.4008,
    "wind_direction": "NE, ENE, E, ESE, SE",
    "water_type": "Shallow, Flat, Chop",
    "difficulty": "No information",
    "amenities": "No information",
    "enriched": true
  },
  {
    "name": "Amrum / Wittduen Badebucht",
    "url": "https://se.kiteforum.com/spot/Wittd_n_Badebucht",
    "slug": "Wittd_n_Badebucht",
    "country": "Germany",
    "lat": 54.6231,
    "lng": 8.395,
    "wind_direction": "ENE, E, ESE, SE, SSE, S, SSW, SW, WSW",
    "water_type": "Shallow, Flat",
    "difficulty": "Beginner, Intermediate, Expert",
    "amenities": "Rooms, Camping, Shower, Toilet, Food, Parking",
    "enriched": true
  },
  {
    "name": "Amstelmeer   Lutjesstrand Kitebeach",
    "url": "https://se.kiteforum.com/kitesurf/spot/Amstelmeer___Lutjesstrand_Kitebeach",
    "slug": "Amstelmeer___Lutjesstrand_Kitebeach",
    "country": "Netherlands",
    "lat": 52.8854,
    "lng": 4.9166,
    "wind_direction": "W",
    "water_type": "Shallow, Flat",
    "difficulty": "Intermediate, Expert",
    "amenities": "No information",
    "enriched": true
  },
  {
    "name": "Anakao",
    "url": "https://se.kiteforum.com/kitesurf/spot/Anakao",
    "slug": "Anakao",
    "country": "Madagascar",
    "lat": -23.6717,
    "lng": 43.646,
    "wind_direction": "S",
    "water_type": "Chop, Medium wave",
    "difficulty": "Beginner, Intermediate, Expert",
    "amenities": "Rooms, Food",
    "enriched": true
  },
  {
    "name": "Andoya   Bleik",
    "url": "https://se.kiteforum.com/kitesurf/spot/Andoya___Bleik",
    "slug": "Andoya___Bleik",
    "country": "Norway",
    "lat": 69.2878,
    "lng": 15.987,
    "wind_direction": "N, SW, WSW, W, WNW, NW, NNW",
    "water_type": "Flat, Chop",
    "difficulty": "Intermediate, Expert",
    "amenities": "No information",
    "enriched": true
  },
  {
    "name": "Andoya   Dverberg Kirke",
    "url": "https://se.kiteforum.com/kitesurf/spot/Andoya___Dverberg_Kirke",
    "slug": "Andoya___Dverberg_Kirke",
    "country": "Norway",
    "lat": 69.1315,
    "lng": 16.0219,
    "wind_direction": "NE, ENE, E, ESE, SE, SSE, S",
    "water_type": "Flat, Chop",
    "difficulty": "Intermediate, Expert",
    "amenities": "Parking",
    "enriched": true
  },
  {
    "name": "Andoya   Nordmela",
    "url": "https://se.kiteforum.com/kitesurf/spot/Andoya___Nordmela",
    "slug": "Andoya___Nordmela",
    "country": "Norway",
    "lat": 69.1319,
    "lng": 15.672,
    "wind_direction": "W",
    "water_type": "Flat, Chop",
    "difficulty": "Intermediate, Expert",
    "amenities": "Parking",
    "enriched": true
  },
  {
    "name": "Andoya   Skogvollvannet",
    "url": "https://se.kiteforum.com/kitesurf/spot/Andoya___Skogvollvannet",
    "slug": "Andoya___Skogvollvannet",
    "country": "Norway",
    "lat": 69.1542,
    "lng": 15.8078,
    "wind_direction": "SW, WSW, W, WNW, NW, NNW",
    "water_type": "Flat",
    "difficulty": "Beginner, Intermediate, Expert",
    "amenities": "No information",
    "enriched": true
  },
  {
    "name": "Andoya   Stave",
    "url": "https://se.kiteforum.com/kitesurf/spot/Andoya___Stave",
    "slug": "Andoya___Stave",
    "country": "Norway",
    "lat": 69.2058,
    "lng": 15.8613,
    "wind_direction": "SW, WSW, W, WNW, NW, NNW",
    "water_type": "Shallow, Flat, Chop",
    "difficulty": "Beginner, Intermediate, Expert",
    "amenities": "Parking",
    "enriched": true
  },
  {
    "name": "Anguib Cove",
    "url": "https://se.kiteforum.com/kitesurf/spot/Anguib_Cove",
    "slug": "Anguib_Cove",
    "country": "Philippines",
    "lat": 18.5212,
    "lng": 122.2258,
    "wind_direction": "NNE, NE",
    "water_type": "Chop, Small wave, Medium wave",
    "difficulty": "Beginner, Intermediate, Expert",
    "amenities": "Camping",
    "enriched": true
  },
  {
    "name": "Anholt",
    "url": "https://se.kiteforum.com/spot/anholt",
    "slug": "anholt",
    "country": "Denmark",
    "lat": 56.7097,
    "lng": 11.5666,
    "wind_direction": "N, NE, E, SE, S, SW, W, NW",
    "water_type": "Chop, Small wave, Medium wave",
    "difficulty": "No information",
    "amenities": "Shower, Toilet, Food",
    "enriched": true
  },
  {
    "name": "Anissaras95",
    "url": "https://se.kiteforum.com/kitesurf/spot/Anissaras95",
    "slug": "Anissaras95",
    "country": "Greece",
    "lat": 35.3394,
    "lng": 25.372,
    "wind_direction": "NW",
    "water_type": "Small wave, Medium wave",
    "difficulty": "Expert",
    "amenities": "Parking",
    "enriched": true
  },
  {
    "name": "Ann Ave",
    "url": "https://se.kiteforum.com/kitesurf/spot/Ann_Ave",
    "slug": "Ann_Ave",
    "country": "South+Africa",
    "lat": -34.1627,
    "lng": 24.8326,
    "wind_direction": "SE",
    "water_type": "Medium wave, Big wave",
    "difficulty": "Intermediate, Expert",
    "amenities": "Parking",
    "enriched": true
  },
  {
    "name": "Anras",
    "url": "https://se.kiteforum.com/spot/Anras",
    "slug": "Anras",
    "country": "Sweden",
    "lat": 58.0017,
    "lng": 11.8086,
    "wind_direction": "SW",
    "water_type": "Flat, Chop",
    "difficulty": "Intermediate, Expert",
    "amenities": "No information",
    "enriched": true
  },
  {
    "name": "Apani",
    "url": "https://se.kiteforum.com/kitesurf/spot/Apani",
    "slug": "Apani",
    "country": "Italy",
    "lat": 40.7036,
    "lng": 17.8098,
    "wind_direction": "N",
    "water_type": "Flat, Chop",
    "difficulty": "Beginner, Intermediate, Expert",
    "amenities": "Parking",
    "enriched": true
  },
  {
    "name": "Aparri",
    "url": "https://se.kiteforum.com/kitesurf/spot/Aparri",
    "slug": "Aparri",
    "country": "Philippines",
    "lat": 18.3618,
    "lng": 121.6291,
    "wind_direction": "No information",
    "water_type": "Medium wave",
    "difficulty": "Intermediate, Expert",
    "amenities": "Rooms, Food, Parking",
    "enriched": true
  },
  {
    "name": "Apelviken",
    "url": "https://se.kiteforum.com/spot/apelviken",
    "slug": "apelviken",
    "country": "Sweden",
    "lat": 57.0812,
    "lng": 12.2597,
    "wind_direction": "SE, SSE, S, SSW, SW, WSW, W, WNW, NW",
    "water_type": "Shallow, Small wave, Medium wave",
    "difficulty": "Beginner, Intermediate, Expert",
    "amenities": "Camping, Shower, Toilet, Food, Parking",
    "enriched": true
  },
  {
    "name": "Aphrodite Surf Club",
    "url": "https://se.kiteforum.com/kitesurf/spot/Aphrodite_Surf_Club_",
    "slug": "Aphrodite_Surf_Club_",
    "country": "Cyprus",
    "lat": 35.1812,
    "lng": 32.9025,
    "wind_direction": "SSW, SW, WSW, W, WNW",
    "water_type": "Flat, Chop, Small wave, Medium wave",
    "difficulty": "Beginner, Intermediate, Expert",
    "amenities": "Rooms, School, Shop, Repair, Rental, Rescue, Shower, Toilet, Food, Parking",
    "enriched": true
  },
  {
    "name": "Aquareve",
    "url": "https://se.kiteforum.com/kitesurf/spot/Aquareve",
    "slug": "Aquareve",
    "country": "New+Caledonia",
    "lat": -22.3112,
    "lng": 166.4525,
    "wind_direction": "E, SE, S, SW, W",
    "water_type": "Shallow, Flat, Chop",
    "difficulty": "Intermediate, Expert",
    "amenities": "Rooms, Parking",
    "enriched": true
  },
  {
    "name": "Aracagi",
    "url": "https://se.kiteforum.com/kitesurf/spot/Aracagi",
    "slug": "Aracagi",
    "country": "Brazil",
    "lat": -2.4643,
    "lng": -44.1993,
    "wind_direction": "NE",
    "water_type": "Flat, Chop, Small wave, Medium wave",
    "difficulty": "Beginner, Intermediate, Expert",
    "amenities": "Rooms, Toilet, Food, Parking",
    "enriched": true
  },
  {
    "name": "Araguari River",
    "url": "https://se.kiteforum.com/kitesurf/spot/Araguari_River",
    "slug": "Araguari_River",
    "country": "Brazil",
    "lat": 1.2071,
    "lng": -50.087,
    "wind_direction": "No information",
    "water_type": "Medium wave, Big wave",
    "difficulty": "Intermediate, Expert",
    "amenities": "None",
    "enriched": true
  },
  {
    "name": "Arcadia Beach",
    "url": "https://se.kiteforum.com/kitesurf/spot/Arcadia_Beach",
    "slug": "Arcadia_Beach",
    "country": "Oregon+(USA)",
    "lat": 45.8464,
    "lng": -123.9611,
    "wind_direction": "NW",
    "water_type": "Medium wave",
    "difficulty": "Intermediate, Expert",
    "amenities": "Parking",
    "enriched": true
  },
  {
    "name": "Archers Spot",
    "url": "https://se.kiteforum.com/kitesurf/spot/Archers_Spot",
    "slug": "Archers_Spot",
    "country": "Nauru",
    "lat": -0.5417,
    "lng": 166.9505,
    "wind_direction": "No information",
    "water_type": "Shallow, Flat, Small wave, Medium wave",
    "difficulty": "Intermediate, Expert",
    "amenities": "Rooms, Shower, Toilet, Food",
    "enriched": true
  },
  {
    "name": "Are Sjoen",
    "url": "https://se.kiteforum.com/kitesurf/spot/Are_Sjoen",
    "slug": "Are_Sjoen",
    "country": "Sweden",
    "lat": 63.3965,
    "lng": 13.0758,
    "wind_direction": "E, ESE, SE, W",
    "water_type": "Flat, Chop",
    "difficulty": "Intermediate, Expert",
    "amenities": "Rooms, School, Shop, Repair, Rental, Rescue, Toilet, Food, Parking",
    "enriched": true
  },
  {
    "name": "Area 51",
    "url": "https://se.kiteforum.com/kitesurf/spot/Area_51",
    "slug": "Area_51",
    "country": "Mexico",
    "lat": 31.3581,
    "lng": -113.6057,
    "wind_direction": "N, SW, WSW, W",
    "water_type": "Flat",
    "difficulty": "Intermediate, Expert",
    "amenities": "No information",
    "enriched": true
  },
  {
    "name": "Arealonga",
    "url": "https://se.kiteforum.com/kitesurf/spot/Arealonga",
    "slug": "Arealonga",
    "country": "Spain",
    "lat": 43.7302,
    "lng": -7.6897,
    "wind_direction": "NE",
    "water_type": "Shallow, Flat, Chop, Small wave, Medium wave",
    "difficulty": "Beginner, Intermediate, Expert",
    "amenities": "No information",
    "enriched": true
  },
  {
    "name": "Areia Branca",
    "url": "https://se.kiteforum.com/kitesurf/spot/Areia_Branca",
    "slug": "Areia_Branca",
    "country": "Mozambique",
    "lat": -23.7809,
    "lng": 35.4799,
    "wind_direction": "NE, ENE, E",
    "water_type": "Shallow, Flat, Chop, Small wave",
    "difficulty": "Beginner, Intermediate, Expert",
    "amenities": "None",
    "enriched": true
  },
  {
    "name": "Areia Vermelha",
    "url": "https://se.kiteforum.com/kitesurf/spot/Areia_Vermelha",
    "slug": "Areia_Vermelha",
    "country": "Brazil",
    "lat": -7.0105,
    "lng": -34.8169,
    "wind_direction": "E",
    "water_type": "Shallow, Flat, Chop",
    "difficulty": "Intermediate, Expert",
    "amenities": "Food",
    "enriched": true
  },
  {
    "name": "Argeles sur Mer",
    "url": "https://se.kiteforum.com/kitesurf/spot/Argeles_sur_Mer",
    "slug": "Argeles_sur_Mer",
    "country": "France",
    "lat": 42.5748,
    "lng": 3.0455,
    "wind_direction": "ESE",
    "water_type": "Medium wave",
    "difficulty": "Intermediate, Expert",
    "amenities": "Rooms, Camping, School, Rental, Rescue, Shower, Toilet, Food, Parking",
    "enriched": true
  },
  {
    "name": "Aries on the Bay",
    "url": "https://se.kiteforum.com/kitesurf/spot/Aries_on_the_Bay",
    "slug": "Aries_on_the_Bay",
    "country": "Virginia+(USA)",
    "lat": 36.9135,
    "lng": -76.1136,
    "wind_direction": "NE, ENE, E",
    "water_type": "Chop, Small wave",
    "difficulty": "Beginner, Intermediate, Expert",
    "amenities": "Parking",
    "enriched": true
  },
  {
    "name": "Arild",
    "url": "https://se.kiteforum.com/spot/arild",
    "slug": "arild",
    "country": "Sweden",
    "lat": 56.2717,
    "lng": 12.5924,
    "wind_direction": "N, NW, NNW",
    "water_type": "Chop, Small wave, Medium wave",
    "difficulty": "Expert",
    "amenities": "Parking",
    "enriched": true
  },
  {
    "name": "Armacao",
    "url": "https://se.kiteforum.com/kitesurf/spot/Armacao",
    "slug": "Armacao",
    "country": "Brazil",
    "lat": -27.7306,
    "lng": -48.5074,
    "wind_direction": "NE, SE",
    "water_type": "Medium wave",
    "difficulty": "Intermediate, Expert",
    "amenities": "None",
    "enriched": true
  },
  {
    "name": "Army Bay",
    "url": "https://se.kiteforum.com/kitesurf/spot/Army_Bay",
    "slug": "Army_Bay",
    "country": "New+Zealand",
    "lat": -36.6017,
    "lng": 174.8114,
    "wind_direction": "NE, NW",
    "water_type": "Chop",
    "difficulty": "Beginner, Intermediate, Expert",
    "amenities": "Parking",
    "enriched": true
  },
  {
    "name": "Arpoeiras",
    "url": "https://se.kiteforum.com/kitesurf/spot/Arpoeiras",
    "slug": "Arpoeiras",
    "country": "Brazil",
    "lat": -2.832,
    "lng": -40.0861,
    "wind_direction": "ENE, E, ESE",
    "water_type": "Shallow, Flat, Chop",
    "difficulty": "Beginner, Intermediate, Expert",
    "amenities": "Toilet, Food, Parking",
    "enriched": true
  },
  {
    "name": "Arraial dAjuda",
    "url": "https://se.kiteforum.com/kitesurf/spot/Arraial_dAjuda",
    "slug": "Arraial_dAjuda",
    "country": "Brazil",
    "lat": -16.46,
    "lng": -39.0608,
    "wind_direction": "SE",
    "water_type": "Shallow, Flat, Chop, Small wave",
    "difficulty": "Beginner, Intermediate, Expert",
    "amenities": "Rooms, School, Toilet, Food, Parking",
    "enriched": true
  },
  {
    "name": "Arroyo Laguna",
    "url": "https://se.kiteforum.com/kitesurf/spot/Arroyo_Laguna",
    "slug": "Arroyo_Laguna",
    "country": "California+(USA)",
    "lat": 35.652,
    "lng": -121.2216,
    "wind_direction": "W, WNW, NW",
    "water_type": "Medium wave",
    "difficulty": "Intermediate, Expert",
    "amenities": "Parking",
    "enriched": true
  },
  {
    "name": "Arroyo de Piedra",
    "url": "https://se.kiteforum.com/kitesurf/spot/Arroyo_de_Piedra",
    "slug": "Arroyo_de_Piedra",
    "country": "Colombia",
    "lat": 10.6154,
    "lng": -75.4547,
    "wind_direction": "N, NNE",
    "water_type": "Small wave, Medium wave",
    "difficulty": "Intermediate, Expert",
    "amenities": "No information",
    "enriched": true
  },
  {
    "name": "Artistas1f",
    "url": "https://se.kiteforum.com/kitesurf/spot/Artistas1f",
    "slug": "Artistas1f",
    "country": "Brazil",
    "lat": -10.9738,
    "lng": -37.0347,
    "wind_direction": "E",
    "water_type": "Chop, Small wave",
    "difficulty": "Beginner, Intermediate, Expert",
    "amenities": "Rooms, Toilet, Food, Parking",
    "enriched": true
  },
  {
    "name": "Aruana",
    "url": "https://se.kiteforum.com/kitesurf/spot/Aruana",
    "slug": "Aruana",
    "country": "Brazil",
    "lat": -11.0269,
    "lng": -37.0756,
    "wind_direction": "NE, ENE, E, ESE, SE",
    "water_type": "Small wave, Medium wave",
    "difficulty": "Beginner, Intermediate, Expert",
    "amenities": "Rooms, Shower, Toilet, Food, Parking",
    "enriched": true
  },
  {
    "name": "Arugam Bay",
    "url": "https://se.kiteforum.com/kitesurf/spot/Arugam_Bay",
    "slug": "Arugam_Bay",
    "country": "Sri+Lanka",
    "lat": 6.8491,
    "lng": 81.8319,
    "wind_direction": "NE, SW",
    "water_type": "Small wave, Medium wave",
    "difficulty": "Beginner, Intermediate, Expert",
    "amenities": "Rooms, Toilet, Food, Parking",
    "enriched": true
  },
  {
    "name": "Arugam Point",
    "url": "https://se.kiteforum.com/kitesurf/spot/Arugam_Point",
    "slug": "Arugam_Point",
    "country": "Sri+Lanka",
    "lat": 6.8395,
    "lng": 81.8394,
    "wind_direction": "SW",
    "water_type": "Medium wave",
    "difficulty": "Beginner, Intermediate, Expert",
    "amenities": "None",
    "enriched": true
  },
  {
    "name": "Asa",
    "url": "https://se.kiteforum.com/spot/asa",
    "slug": "asa",
    "country": "Denmark",
    "lat": 57.1422,
    "lng": 10.4257,
    "wind_direction": "No information",
    "water_type": "No information",
    "difficulty": "No information",
    "amenities": "No information",
    "enriched": true
  },
  {
    "name": "Aschau",
    "url": "https://se.kiteforum.com/spot/aschau",
    "slug": "aschau",
    "country": "Germany",
    "lat": 54.4618,
    "lng": 9.9308,
    "wind_direction": "NE, WSW, W, WNW, NW",
    "water_type": "Flat, Chop",
    "difficulty": "No information",
    "amenities": "No information",
    "enriched": true
  },
  {
    "name": "Ashrafi Islands",
    "url": "https://se.kiteforum.com/kitesurf/spot/Ashrafi_Islands",
    "slug": "Ashrafi_Islands",
    "country": "Egypt",
    "lat": 27.7503,
    "lng": 33.6959,
    "wind_direction": "N, NNE, NE, NW, NNW",
    "water_type": "Flat, Chop",
    "difficulty": "Beginner, Intermediate, Expert",
    "amenities": "None",
    "enriched": true
  },
  {
    "name": "Asia",
    "url": "https://se.kiteforum.com/kitesurf/spot/Asia",
    "slug": "Asia",
    "country": "Peru",
    "lat": -12.7848,
    "lng": -76.594,
    "wind_direction": "S",
    "water_type": "Small wave, Medium wave",
    "difficulty": "Beginner, Intermediate, Expert",
    "amenities": "Rooms",
    "enriched": true
  },
  {
    "name": "Askims Badet",
    "url": "https://se.kiteforum.com/spot/markholmen",
    "slug": "markholmen",
    "country": "Sweden",
    "lat": 57.6251,
    "lng": 11.9268,
    "wind_direction": "SSW, SW",
    "water_type": "Shallow, Flat, Chop, Small wave, Medium wave",
    "difficulty": "Intermediate, Expert",
    "amenities": "Camping, Toilet, Parking",
    "enriched": true
  },
  {
    "name": "Assateague Island   Tom s Cove30",
    "url": "https://se.kiteforum.com/kitesurf/spot/Assateague_Island___Tom_s_Cove30",
    "slug": "Assateague_Island___Tom_s_Cove30",
    "country": "Virginia+(USA)",
    "lat": 37.8754,
    "lng": -75.3526,
    "wind_direction": "SW, W, NW",
    "water_type": "Shallow, Flat, Chop, Small wave",
    "difficulty": "Beginner, Intermediate, Expert",
    "amenities": "Toilet",
    "enriched": true
  },
  {
    "name": "Assinie Estuary",
    "url": "https://se.kiteforum.com/kitesurf/spot/Assinie_Estuary",
    "slug": "Assinie_Estuary",
    "country": "Ivory+Coast",
    "lat": 5.1273,
    "lng": -3.2888,
    "wind_direction": "No information",
    "water_type": "Shallow, Flat, Small wave, Medium wave",
    "difficulty": "Beginner, Intermediate, Expert",
    "amenities": "Rooms, Food, Parking",
    "enriched": true
  },
  {
    "name": "Atalaia",
    "url": "https://se.kiteforum.com/kitesurf/spot/Atalaia",
    "slug": "Atalaia",
    "country": "Brazil",
    "lat": -10.9947,
    "lng": -37.0516,
    "wind_direction": "E, ESE, SE, SSE, S",
    "water_type": "Small wave, Medium wave",
    "difficulty": "Beginner, Intermediate, Expert",
    "amenities": "Rooms, Shower, Toilet, Food, Parking",
    "enriched": true
  },
  {
    "name": "Atata Island",
    "url": "https://se.kiteforum.com/kitesurf/spot/Atata_Island",
    "slug": "Atata_Island",
    "country": "Tonga",
    "lat": -21.0574,
    "lng": -175.2579,
    "wind_direction": "NE, ENE, E, ESE, SE, SSE, S, SSW, SW, WSW, W, WNW, NW",
    "water_type": "Shallow, Flat, Chop",
    "difficulty": "Intermediate, Expert",
    "amenities": "None",
    "enriched": true
  },
  {
    "name": "Aterro",
    "url": "https://se.kiteforum.com/kitesurf/spot/Aterro",
    "slug": "Aterro",
    "country": "Portugal",
    "lat": 41.2095,
    "lng": -8.7155,
    "wind_direction": "N, NNE",
    "water_type": "Chop, Medium wave, Big wave",
    "difficulty": "Expert",
    "amenities": "Shop, Rescue, Shower, Toilet, Food, Parking",
    "enriched": true
  },
  {
    "name": "Atins",
    "url": "https://se.kiteforum.com/kitesurf/spot/Atins",
    "slug": "Atins",
    "country": "Brazil",
    "lat": -2.5672,
    "lng": -42.7467,
    "wind_direction": "NE, ENE, E, ESE, SE",
    "water_type": "Shallow, Flat, Chop, Small wave",
    "difficulty": "Beginner, Intermediate, Expert",
    "season": "July to December maybe extending to mid-January",
    "amenities": "Rooms, School, Food",
    "enriched": true
  },
  {
    "name": "Aukrog",
    "url": "https://se.kiteforum.com/spot/aukrog",
    "slug": "aukrog",
    "country": "Germany",
    "lat": 54.4158,
    "lng": 10.2401,
    "wind_direction": "NE",
    "water_type": "Shallow, Flat",
    "difficulty": "Beginner, Intermediate, Expert",
    "amenities": "Camping, Food, Parking",
    "enriched": true
  },
  {
    "name": "Aurora Reservoir",
    "url": "https://se.kiteforum.com/kitesurf/spot/Aurora_Reservoir",
    "slug": "Aurora_Reservoir",
    "country": "Colorado+(USA)",
    "lat": 39.6125,
    "lng": -104.669,
    "wind_direction": "SE, SSE, S",
    "water_type": "Chop",
    "difficulty": "Beginner, Intermediate, Expert",
    "amenities": "Parking",
    "enriched": true
  },
  {
    "name": "Austnesfjorden   Ost Pollen",
    "url": "https://se.kiteforum.com/kitesurf/spot/Austnesfjorden___Ost_Pollen",
    "slug": "Austnesfjorden___Ost_Pollen",
    "country": "Norway",
    "lat": 68.3354,
    "lng": 14.7528,
    "wind_direction": "SW",
    "water_type": "Flat, Chop",
    "difficulty": "Intermediate, Expert",
    "amenities": "No information",
    "enriched": true
  },
  {
    "name": "Avalanche",
    "url": "https://se.kiteforum.com/kitesurf/spot/Avalanche",
    "slug": "Avalanche",
    "country": "South+Africa",
    "lat": -33.9837,
    "lng": 25.6706,
    "wind_direction": "SE",
    "water_type": "Medium wave",
    "difficulty": "Expert",
    "amenities": "Rescue, Toilet, Parking",
    "enriched": true
  },
  {
    "name": "Aylmer beach",
    "url": "https://se.kiteforum.com/kitesurf/spot/Aylmer_beach",
    "slug": "Aylmer_beach",
    "country": "Canada",
    "lat": 45.3971,
    "lng": -75.8602,
    "wind_direction": "S, SSW, SW, WSW, W, WNW, NW",
    "water_type": "Chop, Small wave",
    "difficulty": "Intermediate, Expert",
    "amenities": "Rooms, School, Rescue, Toilet, Food, Parking",
    "enriched": true
  },
  {
    "name": "Ayoke Island",
    "url": "https://se.kiteforum.com/kitesurf/spot/Ayoke_Island",
    "slug": "Ayoke_Island",
    "country": "Philippines",
    "lat": 9.3974,
    "lng": 126.0562,
    "wind_direction": "No information",
    "water_type": "Shallow, Flat, Medium wave",
    "difficulty": "Intermediate, Expert",
    "amenities": "None",
    "enriched": true
  },
  {
    "name": "Ayoyo",
    "url": "https://se.kiteforum.com/kitesurf/spot/Ayoyo",
    "slug": "Ayoyo",
    "country": "Philippines",
    "lat": 18.6312,
    "lng": 120.8146,
    "wind_direction": "NE",
    "water_type": "Small wave, Medium wave, Big wave",
    "difficulty": "Intermediate, Expert",
    "amenities": "Parking",
    "enriched": true
  },
  {
    "name": "Ayvalik Kite Zone",
    "url": "https://se.kiteforum.com/kitesurf/spot/Ayvalik_Kite_Zone",
    "slug": "Ayvalik_Kite_Zone",
    "country": "Turkey",
    "lat": 39.3681,
    "lng": 26.7653,
    "wind_direction": "No information",
    "water_type": "Shallow, Flat, Chop",
    "difficulty": "Beginner, Intermediate, Expert",
    "amenities": "School, Shop, Toilet, Parking",
    "enriched": true
  },
  {
    "name": "Azalas",
    "url": "https://se.kiteforum.com/kitesurf/spot/Azalas",
    "slug": "Azalas",
    "country": "Greece",
    "lat": 37.0869,
    "lng": 25.5924,
    "wind_direction": "N, NNE",
    "water_type": "Chop, Small wave",
    "difficulty": "Intermediate, Expert",
    "amenities": "None",
    "enriched": true
  },
  {
    "name": "BLACKROCK SANDS",
    "url": "https://se.kiteforum.com/kitesurf/spot/BLACKROCK_SANDS",
    "slug": "BLACKROCK_SANDS",
    "country": "Wales+(UK)",
    "lat": 52.9104,
    "lng": -4.1884,
    "wind_direction": "SSE, S, SSW, SW",
    "water_type": "No information",
    "difficulty": "Beginner, Intermediate, Expert",
    "amenities": "Camping, Shop, Rescue, Toilet, Food, Parking",
    "enriched": true
  },
  {
    "name": "Baarland",
    "url": "https://se.kiteforum.com/kitesurf/spot/Baarland",
    "slug": "Baarland",
    "country": "Netherlands",
    "lat": 51.39289973,
    "lng": 3.89588194,
    "wind_direction": "E, ESE, SE, SSE, S, SSW",
    "water_type": "Chop, Small wave",
    "difficulty": "Intermediate, Expert",
    "amenities": "Rooms, Camping, School, Shower, Toilet, Food, Parking",
    "enriched": true
  },
  {
    "name": "Babites Ezers",
    "url": "https://se.kiteforum.com/kitesurf/spot/Babites_Ezers",
    "slug": "Babites_Ezers",
    "country": "Latvia",
    "lat": 56.9418,
    "lng": 23.793,
    "wind_direction": "No information",
    "water_type": "Shallow",
    "difficulty": "Intermediate, Expert",
    "amenities": "None",
    "enriched": true
  },
  {
    "name": "Baby Bay",
    "url": "https://se.kiteforum.com/kitesurf/spot/Baby_Bay",
    "slug": "Baby_Bay",
    "country": "Egypt",
    "lat": 28.4714,
    "lng": 34.5069,
    "wind_direction": "N, NNE, NE",
    "water_type": "Flat",
    "difficulty": "Beginner, Intermediate, Expert",
    "amenities": "None",
    "enriched": true
  },
  {
    "name": "Baeckerswerft",
    "url": "https://se.kiteforum.com/spot/baeckerswerft",
    "slug": "baeckerswerft",
    "country": "Germany",
    "lat": 54.852,
    "lng": 9.5523,
    "wind_direction": "S, SSW, SW, WSW, W",
    "water_type": "Shallow, Flat, Chop",
    "difficulty": "Intermediate, Expert",
    "amenities": "None",
    "enriched": true
  },
  {
    "name": "Bagasbas Beach",
    "url": "https://se.kiteforum.com/kitesurf/spot/Bagasbas_Beach",
    "slug": "Bagasbas_Beach",
    "country": "Philippines",
    "lat": 14.1381,
    "lng": 122.983,
    "wind_direction": "NE, ENE",
    "water_type": "Shallow, Chop, Small wave, Medium wave",
    "difficulty": "Beginner, Intermediate, Expert",
    "amenities": "Rooms, School, Shop, Repair, Rental, Rescue, Shower, Toilet, Food, Parking",
    "enriched": true
  },
  {
    "name": "Bahia Inglesa",
    "url": "https://se.kiteforum.com/kitesurf/spot/Bahia_Inglesa",
    "slug": "Bahia_Inglesa",
    "country": "Chile",
    "lat": -27.1277,
    "lng": -70.8606,
    "wind_direction": "S, SSW, SW, WSW, W",
    "water_type": "Shallow, Flat, Chop, Small wave",
    "difficulty": "Beginner, Intermediate, Expert",
    "amenities": "Rooms, Camping, School, Shop, Rental, Rescue, Shower, Toilet, Food, Parking",
    "enriched": true
  },
  {
    "name": "Baia Formosa",
    "url": "https://se.kiteforum.com/kitesurf/spot/Baia_Formosa",
    "slug": "Baia_Formosa",
    "country": "Brazil",
    "lat": -6.3676,
    "lng": -35.0024,
    "wind_direction": "NE, ENE, E, ESE",
    "water_type": "Small wave, Medium wave",
    "difficulty": "Intermediate, Expert",
    "amenities": "Rooms, Toilet, Food, Parking",
    "enriched": true
  },
  {
    "name": "Baia Norte   Sao Vicente",
    "url": "https://se.kiteforum.com/kitesurf/spot/Baia_Norte___Sao_Vicente",
    "slug": "Baia_Norte___Sao_Vicente",
    "country": "Cape+Verde",
    "lat": 16.886,
    "lng": -24.9141,
    "wind_direction": "NNE, NE",
    "water_type": "Small wave, Medium wave, Big wave",
    "difficulty": "Intermediate, Expert",
    "amenities": "Rooms, Parking",
    "enriched": true
  },
  {
    "name": "Baia das Gates",
    "url": "https://se.kiteforum.com/kitesurf/spot/Baia_das_Gates",
    "slug": "Baia_das_Gates",
    "country": "Cape+Verde",
    "lat": 16.9041,
    "lng": -24.9064,
    "wind_direction": "NE",
    "water_type": "Shallow, Flat, Small wave",
    "difficulty": "Beginner, Intermediate, Expert",
    "amenities": "Parking",
    "enriched": true
  },
  {
    "name": "Baie des Signes",
    "url": "https://se.kiteforum.com/kitesurf/spot/Baie_des_Signes",
    "slug": "Baie_des_Signes",
    "country": "Madagascar",
    "lat": -25.0508,
    "lng": 46.9602,
    "wind_direction": "NE, SE",
    "water_type": "Small wave, Medium wave, Big wave",
    "difficulty": "Intermediate, Expert",
    "amenities": "Rooms, Camping, School, Toilet, Food, Parking",
    "enriched": true
  },
  {
    "name": "Baileys Harbor",
    "url": "https://se.kiteforum.com/kitesurf/spot/Baileys_Harbor",
    "slug": "Baileys_Harbor",
    "country": "Wisconsin+(USA)",
    "lat": 45.0584,
    "lng": -87.1237,
    "wind_direction": "ESE, SE, SSE, S",
    "water_type": "Shallow, Chop, Small wave, Medium wave",
    "difficulty": "Beginner, Intermediate, Expert",
    "amenities": "Toilet, Parking",
    "enriched": true
  },
  {
    "name": "Baisha   Citou Beach",
    "url": "https://se.kiteforum.com/kitesurf/spot/Baisha___Citou_Beach",
    "slug": "Baisha___Citou_Beach",
    "country": "Taiwan",
    "lat": 23.6525,
    "lng": 119.612,
    "wind_direction": "NNE, NE, ENE",
    "water_type": "Flat, Chop, Small wave",
    "difficulty": "Intermediate, Expert",
    "amenities": "No information",
    "enriched": true
  },
  {
    "name": "Baja California   Campo Rene",
    "url": "https://se.kiteforum.com/kitesurf/spot/Baja_California___Campo_Rene",
    "slug": "Baja_California___Campo_Rene",
    "country": "Mexico",
    "lat": 26.7895,
    "lng": -113.5111,
    "wind_direction": "No information",
    "water_type": "Small wave, Medium wave",
    "difficulty": "Beginner, Intermediate, Expert",
    "amenities": "None",
    "enriched": true
  },
  {
    "name": "Baja California   Punta Abreojos",
    "url": "https://se.kiteforum.com/kitesurf/spot/Baja_California___Punta_Abreojos",
    "slug": "Baja_California___Punta_Abreojos",
    "country": "Mexico",
    "lat": 26.7062,
    "lng": -113.5784,
    "wind_direction": "WNW, NW, NNW",
    "water_type": "Medium wave, Big wave",
    "difficulty": "Intermediate, Expert",
    "amenities": "No information",
    "enriched": true
  },
  {
    "name": "Baja California   Punta San Carlos",
    "url": "https://se.kiteforum.com/kitesurf/spot/Baja_California___Punta_San_Carlos",
    "slug": "Baja_California___Punta_San_Carlos",
    "country": "Mexico",
    "lat": 29.6165,
    "lng": -115.499,
    "wind_direction": "NW",
    "water_type": "Medium wave",
    "difficulty": "Intermediate, Expert",
    "amenities": "Rooms, Camping, Parking",
    "enriched": true
  },
  {
    "name": "Baja California   Rosarito",
    "url": "https://se.kiteforum.com/kitesurf/spot/Baja_California___Rosarito",
    "slug": "Baja_California___Rosarito",
    "country": "Mexico",
    "lat": 32.3583,
    "lng": -117.0683,
    "wind_direction": "NNW",
    "water_type": "Medium wave",
    "difficulty": "Intermediate, Expert",
    "amenities": "Parking",
    "enriched": true
  },
  {
    "name": "Baja California   Rosarito Pier",
    "url": "https://se.kiteforum.com/kitesurf/spot/Baja_California___Rosarito_Pier",
    "slug": "Baja_California___Rosarito_Pier",
    "country": "Mexico",
    "lat": 32.3328,
    "lng": -117.0554,
    "wind_direction": "NNW",
    "water_type": "Medium wave",
    "difficulty": "Intermediate, Expert",
    "amenities": "No information",
    "enriched": true
  },
  {
    "name": "Bajeta",
    "url": "https://se.kiteforum.com/kitesurf/spot/Bajeta",
    "slug": "Bajeta",
    "country": "Spain",
    "lat": 35.9941,
    "lng": -5.6784,
    "wind_direction": "E",
    "water_type": "Medium wave, Big wave",
    "difficulty": "Expert",
    "amenities": "None",
    "enriched": true
  },
  {
    "name": "Balagog Beach",
    "url": "https://se.kiteforum.com/kitesurf/spot/Balagog_Beach",
    "slug": "Balagog_Beach",
    "country": "Thailand",
    "lat": 7.2335,
    "lng": 99.5383,
    "wind_direction": "SSE, S, SSW",
    "water_type": "Shallow, Flat, Chop, Small wave, Medium wave",
    "difficulty": "Beginner, Intermediate, Expert",
    "amenities": "Rooms, Shower, Toilet, Food",
    "enriched": true
  },
  {
    "name": "Baleia",
    "url": "https://se.kiteforum.com/kitesurf/spot/Baleia",
    "slug": "Baleia",
    "country": "Brazil",
    "lat": -23.7743,
    "lng": -45.673,
    "wind_direction": "SSE, S, SSW, SW",
    "water_type": "Small wave, Medium wave",
    "difficulty": "Beginner, Intermediate, Expert",
    "amenities": "Parking",
    "enriched": true
  },
  {
    "name": "Bali   Black Sand Beach",
    "url": "https://se.kiteforum.com/kitesurf/spot/Bali___Black_Sand_Beach",
    "slug": "Bali___Black_Sand_Beach",
    "country": "Indonesia",
    "lat": -8.6683,
    "lng": 115.2607,
    "wind_direction": "E, ESE, SE",
    "water_type": "Chop, Small wave",
    "difficulty": "Beginner, Intermediate, Expert",
    "amenities": "Parking",
    "enriched": true
  },
  {
    "name": "Bali   Keramas",
    "url": "https://se.kiteforum.com/kitesurf/spot/Bali___Keramas",
    "slug": "Bali___Keramas",
    "country": "Indonesia",
    "lat": -8.5981,
    "lng": 115.339,
    "wind_direction": "No information",
    "water_type": "No information",
    "difficulty": "No information",
    "amenities": "School, Shower, Toilet, Food, Parking",
    "enriched": true
  },
  {
    "name": "Bali   Kuta Beach",
    "url": "https://se.kiteforum.com/kitesurf/spot/Bali___Kuta_Beach",
    "slug": "Bali___Kuta_Beach",
    "country": "Indonesia",
    "lat": -8.7202,
    "lng": 115.1689,
    "wind_direction": "No information",
    "water_type": "Medium wave",
    "difficulty": "Intermediate, Expert",
    "amenities": "Rooms, Shop, Shower, Toilet, Food, Parking",
    "enriched": true
  },
  {
    "name": "Bali   Mediwi",
    "url": "https://se.kiteforum.com/kitesurf/spot/Bali___Mediwi",
    "slug": "Bali___Mediwi",
    "country": "Indonesia",
    "lat": -8.4215,
    "lng": 114.8064,
    "wind_direction": "ESE, SE, SW, WSW, W",
    "water_type": "Medium wave",
    "difficulty": "Intermediate, Expert",
    "amenities": "No information",
    "enriched": true
  },
  {
    "name": "Ballito",
    "url": "https://se.kiteforum.com/kitesurf/spot/Ballito",
    "slug": "Ballito",
    "country": "South+Africa",
    "lat": -29.5415,
    "lng": 31.218,
    "wind_direction": "NE, SSW",
    "water_type": "Medium wave",
    "difficulty": "Intermediate, Expert",
    "amenities": "Rooms, Food, Parking",
    "enriched": true
  },
  {
    "name": "Ballyheirnan",
    "url": "https://se.kiteforum.com/kitesurf/spot/Ballyheirnan",
    "slug": "Ballyheirnan",
    "country": "Ireland",
    "lat": 55.2481,
    "lng": -7.7022,
    "wind_direction": "W",
    "water_type": "Shallow, Small wave, Medium wave, Big wave",
    "difficulty": "Intermediate, Expert",
    "amenities": "School, Parking",
    "enriched": true
  },
  {
    "name": "Ballynamona",
    "url": "https://se.kiteforum.com/kitesurf/spot/Ballynamona",
    "slug": "Ballynamona",
    "country": "Ireland",
    "lat": 51.8437,
    "lng": -8.0214,
    "wind_direction": "ENE, E, ESE",
    "water_type": "Shallow, Chop, Small wave, Medium wave",
    "difficulty": "Beginner, Intermediate, Expert",
    "amenities": "Parking",
    "enriched": true
  },
  {
    "name": "Ballywalter",
    "url": "https://se.kiteforum.com/kitesurf/spot/Ballywalter",
    "slug": "Ballywalter",
    "country": "Ireland",
    "lat": 54.5392,
    "lng": -5.4836,
    "wind_direction": "NE",
    "water_type": "Chop, Small wave",
    "difficulty": "Beginner, Intermediate, Expert",
    "amenities": "Rooms, Camping, Parking",
    "enriched": true
  },
  {
    "name": "Balneario Arroio do Silva",
    "url": "https://se.kiteforum.com/kitesurf/spot/Balneario_Arroio_do_Silva",
    "slug": "Balneario_Arroio_do_Silva",
    "country": "Brazil",
    "lat": -28.9878,
    "lng": -49.4112,
    "wind_direction": "NE, S",
    "water_type": "Shallow, Small wave, Medium wave",
    "difficulty": "Beginner, Intermediate, Expert",
    "amenities": "Rooms, Toilet, Food, Parking",
    "enriched": true
  },
  {
    "name": "Balneario Camboriu",
    "url": "https://se.kiteforum.com/kitesurf/spot/Balneario_Camboriu",
    "slug": "Balneario_Camboriu",
    "country": "Brazil",
    "lat": -26.9745,
    "lng": -48.6347,
    "wind_direction": "NE",
    "water_type": "Small wave, Medium wave",
    "difficulty": "Intermediate, Expert",
    "amenities": "Rooms, Shower, Toilet, Food, Parking",
    "enriched": true
  },
  {
    "name": "Balneario Gaivota",
    "url": "https://se.kiteforum.com/kitesurf/spot/Balneario_Gaivota",
    "slug": "Balneario_Gaivota",
    "country": "Brazil",
    "lat": -29.159,
    "lng": -49.5756,
    "wind_direction": "NE, S",
    "water_type": "Shallow, Small wave, Medium wave",
    "difficulty": "Beginner, Intermediate, Expert",
    "amenities": "Rooms, Toilet, Food, Parking",
    "enriched": true
  },
  {
    "name": "Baltrum",
    "url": "https://se.kiteforum.com/spot/baltrum",
    "slug": "baltrum",
    "country": "Germany",
    "lat": 53.7332,
    "lng": 7.3806,
    "wind_direction": "W, WNW, NW, NNW",
    "water_type": "Shallow, Flat, Chop, Small wave, Medium wave, Big wave",
    "difficulty": "Beginner, Intermediate, Expert",
    "amenities": "Rooms, School, Shop, Rental, Rescue, Shower, Toilet, Food",
    "enriched": true
  },
  {
    "name": "Banana Beach",
    "url": "https://se.kiteforum.com/kitesurf/spot/Banana_Beach",
    "slug": "Banana_Beach",
    "country": "South+Africa",
    "lat": -30.6599,
    "lng": 30.5174,
    "wind_direction": "NE, SSW",
    "water_type": "Medium wave",
    "difficulty": "Intermediate, Expert",
    "amenities": "No information",
    "enriched": true
  },
  {
    "name": "Banana Island",
    "url": "https://se.kiteforum.com/kitesurf/spot/Banana_Island",
    "slug": "Banana_Island",
    "country": "Philippines",
    "lat": 11.7709,
    "lng": 120.1269,
    "wind_direction": "NNE, NE, ENE, E",
    "water_type": "Shallow, Flat, Chop, Small wave",
    "difficulty": "Beginner, Intermediate, Expert",
    "amenities": "Rooms, Camping, School, Shower, Toilet, Food",
    "enriched": true
  },
  {
    "name": "Bandon",
    "url": "https://se.kiteforum.com/kitesurf/spot/Bandon",
    "slug": "Bandon",
    "country": "Oregon+(USA)",
    "lat": 43.0985,
    "lng": -124.4324,
    "wind_direction": "NW",
    "water_type": "Small wave, Medium wave",
    "difficulty": "Intermediate, Expert",
    "amenities": "Rooms",
    "enriched": true
  },
  {
    "name": "Bang Nalang Island",
    "url": "https://se.kiteforum.com/kitesurf/spot/Bang_Nalang_Island",
    "slug": "Bang_Nalang_Island",
    "country": "Thailand",
    "lat": 7.0432,
    "lng": 99.4736,
    "wind_direction": "N, NNE, NE, SSE, S, SSW",
    "water_type": "Shallow, Flat, Chop",
    "difficulty": "Beginner, Intermediate, Expert",
    "amenities": "Rooms, Shower, Toilet, Food",
    "enriched": true
  },
  {
    "name": "Bang Saphan Noi",
    "url": "https://se.kiteforum.com/kitesurf/spot/Bang_Saphan_Noi",
    "slug": "Bang_Saphan_Noi",
    "country": "Thailand",
    "lat": 11.0897,
    "lng": 99.4911,
    "wind_direction": "NE, SE",
    "water_type": "Flat, Chop, Small wave",
    "difficulty": "Beginner, Intermediate, Expert",
    "amenities": "No information",
    "enriched": true
  },
  {
    "name": "Bangui",
    "url": "https://se.kiteforum.com/kitesurf/spot/Bangui",
    "slug": "Bangui",
    "country": "Philippines",
    "lat": 18.5286,
    "lng": 120.7063,
    "wind_direction": "NE",
    "water_type": "Flat, Small wave, Medium wave",
    "difficulty": "Beginner, Intermediate, Expert",
    "amenities": "Toilet, Food, Parking",
    "enriched": true
  },
  {
    "name": "Banquito San Andres",
    "url": "https://se.kiteforum.com/kitesurf/spot/Banquito_San_Andres",
    "slug": "Banquito_San_Andres",
    "country": "Argentina",
    "lat": -32.959,
    "lng": -60.6034,
    "wind_direction": "ENE, E, S, SSW, SW, WSW, W",
    "water_type": "Flat, Chop",
    "difficulty": "Intermediate, Expert",
    "amenities": "None",
    "enriched": true
  },
  {
    "name": "Barangay Qurino",
    "url": "https://se.kiteforum.com/kitesurf/spot/Barangay_Qurino",
    "slug": "Barangay_Qurino",
    "country": "Philippines",
    "lat": 16.7621,
    "lng": 120.3364,
    "wind_direction": "NW",
    "water_type": "Small wave, Medium wave",
    "difficulty": "Intermediate, Expert",
    "amenities": "Parking",
    "enriched": true
  },
  {
    "name": "Baranovo80",
    "url": "https://se.kiteforum.com/kitesurf/spot/Baranovo80",
    "slug": "Baranovo80",
    "country": "Russia",
    "lat": 51.3997,
    "lng": 37.7559,
    "wind_direction": "ENE, E, ESE, SE, SSE, S",
    "water_type": "Shallow, Flat, Chop",
    "difficulty": "Beginner, Intermediate",
    "amenities": "None",
    "enriched": true
  },
  {
    "name": "Barbate",
    "url": "https://se.kiteforum.com/kitesurf/spot/Barbate",
    "slug": "Barbate",
    "country": "Spain",
    "lat": 36.1863,
    "lng": -5.9191,
    "wind_direction": "W",
    "water_type": "Flat, Chop, Small wave",
    "difficulty": "Intermediate, Expert",
    "amenities": "Rooms, Shower, Toilet, Food, Parking",
    "enriched": true
  },
  {
    "name": "Barletta",
    "url": "https://se.kiteforum.com/kitesurf/spot/Barletta",
    "slug": "Barletta",
    "country": "Italy",
    "lat": 41.3296,
    "lng": 16.2592,
    "wind_direction": "N, NNE, NE, ENE, E, W, WNW, NW, NNW",
    "water_type": "Shallow, Flat, Chop, Small wave, Medium wave",
    "difficulty": "Beginner, Intermediate, Expert",
    "amenities": "Rooms, School, Rescue, Shower, Toilet, Food, Parking",
    "enriched": true
  },
  {
    "name": "Barn Island",
    "url": "https://se.kiteforum.com/kitesurf/spot/Barn_Island",
    "slug": "Barn_Island",
    "country": "Connecticut+(USA)",
    "lat": 41.3304,
    "lng": -71.8956,
    "wind_direction": "SSE, S, SSW, SW, WSW, W, WNW, NW",
    "water_type": "Shallow, Flat, Chop, Small wave, Medium wave",
    "difficulty": "Intermediate, Expert",
    "amenities": "None",
    "enriched": true
  },
  {
    "name": "Barnstable beach pt",
    "url": "https://se.kiteforum.com/kitesurf/spot/Barnstable_beach_pt",
    "slug": "Barnstable_beach_pt",
    "country": "Massachusetts+(USA)",
    "lat": 41.7237,
    "lng": -70.2727,
    "wind_direction": "No information",
    "water_type": "Shallow, Flat, Chop",
    "difficulty": "Intermediate, Expert",
    "amenities": "No information",
    "enriched": true
  },
  {
    "name": "Barra De Navidad3b",
    "url": "https://se.kiteforum.com/kitesurf/spot/Barra_De_Navidad3b",
    "slug": "Barra_De_Navidad3b",
    "country": "Mexico",
    "lat": 19.199,
    "lng": -104.685,
    "wind_direction": "No information",
    "water_type": "Chop, Small wave, Medium wave",
    "difficulty": "Intermediate, Expert",
    "amenities": "Rooms, Food, Parking",
    "enriched": true
  },
  {
    "name": "Barra Nova  Alagoas",
    "url": "https://se.kiteforum.com/kitesurf/spot/Barra_Nova__Alagoas_",
    "slug": "Barra_Nova__Alagoas_",
    "country": "Brazil",
    "lat": -9.7192,
    "lng": -35.8009,
    "wind_direction": "E, ESE, SE, SSE, S",
    "water_type": "Shallow, Flat, Chop, Small wave, Medium wave",
    "difficulty": "Beginner, Intermediate, Expert",
    "amenities": "Rooms, Toilet, Food, Parking",
    "enriched": true
  },
  {
    "name": "Barra Rio Ararangua",
    "url": "https://se.kiteforum.com/kitesurf/spot/Barra_Rio_Ararangua",
    "slug": "Barra_Rio_Ararangua",
    "country": "Brazil",
    "lat": -28.8982,
    "lng": -49.3107,
    "wind_direction": "NE, S",
    "water_type": "Shallow, Flat, Chop, Small wave, Medium wave",
    "difficulty": "Beginner, Intermediate, Expert",
    "amenities": "None",
    "enriched": true
  },
  {
    "name": "Barra Vieja",
    "url": "https://se.kiteforum.com/kitesurf/spot/Barra_Vieja",
    "slug": "Barra_Vieja",
    "country": "Mexico",
    "lat": 16.695,
    "lng": -99.6529,
    "wind_direction": "W",
    "water_type": "Medium wave",
    "difficulty": "Intermediate, Expert",
    "amenities": "Rooms, Shower, Toilet, Food, Parking",
    "enriched": true
  },
  {
    "name": "Barra da Lagoa",
    "url": "https://se.kiteforum.com/kitesurf/spot/Barra_da_Lagoa",
    "slug": "Barra_da_Lagoa",
    "country": "Brazil",
    "lat": -27.5728,
    "lng": -48.4259,
    "wind_direction": "NE",
    "water_type": "Small wave, Medium wave",
    "difficulty": "Beginner, Intermediate, Expert",
    "amenities": "Shower, Toilet, Food, Parking",
    "enriched": true
  },
  {
    "name": "Barra da Lagoa do Peixe",
    "url": "https://se.kiteforum.com/kitesurf/spot/Barra_da_Lagoa_do_Peixe",
    "slug": "Barra_da_Lagoa_do_Peixe",
    "country": "Brazil",
    "lat": -31.3588,
    "lng": -51.0421,
    "wind_direction": "NE, S",
    "water_type": "Shallow, Flat, Small wave, Medium wave",
    "difficulty": "Beginner, Intermediate, Expert",
    "amenities": "Parking",
    "enriched": true
  },
  {
    "name": "Barra de Camaratuba",
    "url": "https://se.kiteforum.com/kitesurf/spot/Barra_de_Camaratuba",
    "slug": "Barra_de_Camaratuba",
    "country": "Brazil",
    "lat": -6.593,
    "lng": -34.9663,
    "wind_direction": "NE, SE",
    "water_type": "Small wave, Medium wave",
    "difficulty": "Intermediate, Expert",
    "amenities": "Rooms, Toilet, Food",
    "enriched": true
  },
  {
    "name": "Barra del Ostion",
    "url": "https://se.kiteforum.com/kitesurf/spot/Barra_del_Ostion",
    "slug": "Barra_del_Ostion",
    "country": "Mexico",
    "lat": 23.4073,
    "lng": -97.7676,
    "wind_direction": "E",
    "water_type": "Shallow, Flat, Small wave",
    "difficulty": "Beginner, Intermediate, Expert",
    "amenities": "Camping",
    "enriched": true
  },
  {
    "name": "Barra del Tordo",
    "url": "https://se.kiteforum.com/kitesurf/spot/Barra_del_Tordo",
    "slug": "Barra_del_Tordo",
    "country": "Mexico",
    "lat": 23.0562,
    "lng": -97.7625,
    "wind_direction": "N, E, S",
    "water_type": "Shallow, Flat, Chop, Small wave, Medium wave",
    "difficulty": "Intermediate, Expert",
    "amenities": "No information",
    "enriched": true
  },
  {
    "name": "Barra do Cunhau6a",
    "url": "https://se.kiteforum.com/kitesurf/spot/Barra_do_Cunhau6a",
    "slug": "Barra_do_Cunhau6a",
    "country": "Brazil",
    "lat": -6.3114,
    "lng": -35.0357,
    "wind_direction": "E, ESE, SE",
    "water_type": "Shallow, Flat, Chop, Small wave, Medium wave",
    "difficulty": "Beginner, Intermediate",
    "amenities": "Rooms, Food, Parking",
    "enriched": true
  },
  {
    "name": "Barra do Sahy",
    "url": "https://se.kiteforum.com/kitesurf/spot/Barra_do_Sahy",
    "slug": "Barra_do_Sahy",
    "country": "Brazil",
    "lat": -19.88,
    "lng": -40.0852,
    "wind_direction": "NE",
    "water_type": "Small wave, Medium wave",
    "difficulty": "Intermediate, Expert",
    "amenities": "Rooms, Toilet, Food, Parking",
    "enriched": true
  },
  {
    "name": "Barra do Trairi",
    "url": "https://se.kiteforum.com/kitesurf/spot/Barra_do_Trairi",
    "slug": "Barra_do_Trairi",
    "country": "Brazil",
    "lat": -3.2922,
    "lng": -39.1888,
    "wind_direction": "E, ESE, SE",
    "water_type": "Shallow, Flat",
    "difficulty": "Beginner, Intermediate, Expert",
    "amenities": "Toilet, Food",
    "enriched": true
  },
  {
    "name": "Barra do Una",
    "url": "https://se.kiteforum.com/kitesurf/spot/Barra_do_Una",
    "slug": "Barra_do_Una",
    "country": "Brazil",
    "lat": -23.7627,
    "lng": -45.7718,
    "wind_direction": "SSE, S, SSW, SW",
    "water_type": "Small wave, Medium wave",
    "difficulty": "Intermediate, Expert",
    "amenities": "Rooms, Shower, Toilet, Food, Parking",
    "enriched": true
  },
  {
    "name": "Barra do Una Prelado",
    "url": "https://se.kiteforum.com/kitesurf/spot/Barra_do_Una_Prelado",
    "slug": "Barra_do_Una_Prelado",
    "country": "Brazil",
    "lat": -24.4443,
    "lng": -47.0743,
    "wind_direction": "ENE, E, ESE, SE, SSE, S, SSW, SW",
    "water_type": "Shallow, Flat, Small wave, Medium wave",
    "difficulty": "Beginner, Intermediate, Expert",
    "amenities": "None",
    "enriched": true
  },
  {
    "name": "Barranquilla",
    "url": "https://se.kiteforum.com/kitesurf/spot/Barranquilla",
    "slug": "Barranquilla",
    "country": "Colombia",
    "lat": 11.062,
    "lng": -74.8443,
    "wind_direction": "N, NNE, NE",
    "water_type": "Flat",
    "difficulty": "Beginner, Intermediate, Expert",
    "amenities": "Toilet, Food, Parking",
    "enriched": true
  },
  {
    "name": "Barre d Etel",
    "url": "https://se.kiteforum.com/kitesurf/spot/Barre_d_Etel",
    "slug": "Barre_d_Etel",
    "country": "France",
    "lat": 47.6443,
    "lng": -3.2122,
    "wind_direction": "SW, WSW, W",
    "water_type": "Shallow, Flat, Small wave, Medium wave",
    "difficulty": "Beginner, Intermediate, Expert",
    "amenities": "Parking",
    "enriched": true
  },
  {
    "name": "Barreiras do Boqueirao",
    "url": "https://se.kiteforum.com/kitesurf/spot/Barreiras_do_Boqueirao",
    "slug": "Barreiras_do_Boqueirao",
    "country": "Brazil",
    "lat": -9.1272,
    "lng": -35.2817,
    "wind_direction": "E, ESE, SE",
    "water_type": "Chop, Small wave, Medium wave",
    "difficulty": "Intermediate, Expert",
    "amenities": "None",
    "enriched": true
  },
  {
    "name": "Barrinha",
    "url": "https://se.kiteforum.com/kitesurf/spot/Barrinha",
    "slug": "Barrinha",
    "country": "Brazil",
    "lat": -28.0855,
    "lng": -48.632,
    "wind_direction": "NE, SE, SSE",
    "water_type": "Medium wave",
    "difficulty": "Intermediate, Expert",
    "amenities": "None",
    "enriched": true
  },
  {
    "name": "Barrinhaaa",
    "url": "https://se.kiteforum.com/kitesurf/spot/Barrinhaaa",
    "slug": "Barrinhaaa",
    "country": "Brazil",
    "lat": -2.8087,
    "lng": -40.3528,
    "wind_direction": "ENE, E, ESE",
    "water_type": "Shallow, Flat, Chop, Small wave",
    "difficulty": "Beginner, Intermediate, Expert",
    "amenities": "Rooms, Camping, School, Shop, Repair, Rental, Shower, Toilet, Food, Parking",
    "enriched": true
  },
  {
    "name": "Barrote",
    "url": "https://se.kiteforum.com/kitesurf/spot/Barrote",
    "slug": "Barrote",
    "country": "Brazil",
    "lat": -20.1507,
    "lng": -40.1847,
    "wind_direction": "N, NNE",
    "water_type": "Small wave, Medium wave",
    "difficulty": "Beginner, Intermediate, Expert",
    "amenities": "Rooms, Shower, Toilet, Food, Parking",
    "enriched": true
  },
  {
    "name": "Barsebaeck Strand",
    "url": "https://se.kiteforum.com/spot/Barsebaeck_Strand",
    "slug": "Barsebaeck_Strand",
    "country": "Sweden",
    "lat": 55.771,
    "lng": 12.9258,
    "wind_direction": "SW, NW",
    "water_type": "Shallow, Flat, Chop, Small wave",
    "difficulty": "Beginner, Intermediate, Expert",
    "amenities": "Camping, Toilet, Food, Parking",
    "enriched": true
  },
  {
    "name": "Barther Bodden / Fuhlendorf",
    "url": "https://se.kiteforum.com/spot/barther_bodden___fuhlendorf",
    "slug": "barther_bodden___fuhlendorf",
    "country": "Germany",
    "lat": 54.357,
    "lng": 12.5929,
    "wind_direction": "N, NNE, NE, NW, NNW",
    "water_type": "Shallow, Flat, Chop",
    "difficulty": "Beginner, Intermediate, Expert",
    "amenities": "No information",
    "enriched": true
  },
  {
    "name": "Barther Bodden / Michaelsdorf",
    "url": "https://se.kiteforum.com/spot/barther_bodden___michaelsdorf",
    "slug": "barther_bodden___michaelsdorf",
    "country": "Germany",
    "lat": 54.3706,
    "lng": 12.5702,
    "wind_direction": "No information",
    "water_type": "Shallow, Flat, Chop",
    "difficulty": "Beginner, Intermediate, Expert",
    "amenities": "No information",
    "enriched": true
  },
  {
    "name": "Barther Bodden / Pruchten",
    "url": "https://se.kiteforum.com/spot/barther_bodden___pruchten",
    "slug": "barther_bodden___pruchten",
    "country": "Germany",
    "lat": 54.3842,
    "lng": 12.6583,
    "wind_direction": "No information",
    "water_type": "Shallow, Flat, Chop",
    "difficulty": "Beginner, Intermediate, Expert",
    "amenities": "Camping",
    "enriched": true
  },
  {
    "name": "Baru   Playa Blanca",
    "url": "https://se.kiteforum.com/kitesurf/spot/Baru___Playa_Blanca",
    "slug": "Baru___Playa_Blanca",
    "country": "Colombia",
    "lat": 10.2233,
    "lng": -75.6084,
    "wind_direction": "N, NNE, NNW",
    "water_type": "Chop, Small wave",
    "difficulty": "Intermediate, Expert",
    "amenities": "Rooms, Camping, School, Shower, Toilet, Food, Parking",
    "enriched": true
  },
  {
    "name": "Barview Beach",
    "url": "https://se.kiteforum.com/kitesurf/spot/Barview_Beach",
    "slug": "Barview_Beach",
    "country": "Oregon+(USA)",
    "lat": 45.5711,
    "lng": -123.9574,
    "wind_direction": "N, NW, NNW",
    "water_type": "Small wave, Medium wave",
    "difficulty": "Beginner, Intermediate, Expert",
    "amenities": "Camping, Parking",
    "enriched": true
  },
  {
    "name": "Bassin d Arcachon   Andernos les Bains",
    "url": "https://se.kiteforum.com/kitesurf/spot/Bassin_d_Arcachon___Andernos_les_Bains",
    "slug": "Bassin_d_Arcachon___Andernos_les_Bains",
    "country": "France",
    "lat": 44.7333,
    "lng": -1.0923,
    "wind_direction": "SW, NW",
    "water_type": "Shallow, Flat, Chop",
    "difficulty": "Beginner, Intermediate, Expert",
    "amenities": "No information",
    "enriched": true
  },
  {
    "name": "Bassin d Arcachon   Arbousiers",
    "url": "https://se.kiteforum.com/kitesurf/spot/Bassin_d_Arcachon___Arbousiers",
    "slug": "Bassin_d_Arcachon___Arbousiers",
    "country": "France",
    "lat": 44.6459,
    "lng": -1.2004,
    "wind_direction": "SW, NW",
    "water_type": "Shallow, Flat, Chop",
    "difficulty": "Beginner, Intermediate, Expert",
    "amenities": "Camping, Parking",
    "enriched": true
  },
  {
    "name": "Bassin d Arcachon   Claouey",
    "url": "https://se.kiteforum.com/kitesurf/spot/Bassin_d_Arcachon___Claouey",
    "slug": "Bassin_d_Arcachon___Claouey",
    "country": "France",
    "lat": 44.7469,
    "lng": -1.1731,
    "wind_direction": "NE, SE",
    "water_type": "Shallow, Flat, Chop",
    "difficulty": "Beginner, Intermediate, Expert",
    "amenities": "Parking",
    "enriched": true
  },
  {
    "name": "Bastendorff Beach",
    "url": "https://se.kiteforum.com/kitesurf/spot/Bastendorff_Beach",
    "slug": "Bastendorff_Beach",
    "country": "Oregon+(USA)",
    "lat": 43.3453,
    "lng": -124.3484,
    "wind_direction": "NW",
    "water_type": "Medium wave",
    "difficulty": "Intermediate, Expert",
    "amenities": "Parking",
    "enriched": true
  },
  {
    "name": "Batbatan Island   Kawit Beach",
    "url": "https://se.kiteforum.com/kitesurf/spot/Batbatan_Island___Kawit_Beach",
    "slug": "Batbatan_Island___Kawit_Beach",
    "country": "Philippines",
    "lat": 11.4747,
    "lng": 121.9311,
    "wind_direction": "NE",
    "water_type": "Flat, Chop",
    "difficulty": "Beginner, Intermediate, Expert",
    "amenities": "None",
    "enriched": true
  },
  {
    "name": "Baterias",
    "url": "https://se.kiteforum.com/kitesurf/spot/Baterias",
    "slug": "Baterias",
    "country": "Peru",
    "lat": -4.4591,
    "lng": -81.2998,
    "wind_direction": "SW",
    "water_type": "Medium wave",
    "difficulty": "Intermediate, Expert",
    "amenities": "None",
    "enriched": true
  },
  {
    "name": "Bathtub Beach",
    "url": "https://se.kiteforum.com/kitesurf/spot/Bathtub_Beach",
    "slug": "Bathtub_Beach",
    "country": "Florida+(USA)",
    "lat": 27.186,
    "lng": -80.1601,
    "wind_direction": "No information",
    "water_type": "Shallow, Flat, Chop, Small wave, Medium wave",
    "difficulty": "Expert",
    "amenities": "Shower, Toilet, Parking",
    "enriched": true
  },
  {
    "name": "Battery",
    "url": "https://se.kiteforum.com/kitesurf/spot/Battery",
    "slug": "Battery",
    "country": "South+Africa",
    "lat": -34.1498,
    "lng": 18.3198,
    "wind_direction": "SE, SSE, S",
    "water_type": "Medium wave",
    "difficulty": "Expert",
    "amenities": "Parking",
    "enriched": true
  },
  {
    "name": "Bay Front Park",
    "url": "https://se.kiteforum.com/kitesurf/spot/Bay_Front_Park",
    "slug": "Bay_Front_Park",
    "country": "Maryland+(USA)",
    "lat": 38.6787,
    "lng": -76.5312,
    "wind_direction": "NNE, NE, ESE, SE, SSE",
    "water_type": "Shallow, Small wave, Medium wave",
    "difficulty": "Beginner, Intermediate, Expert",
    "amenities": "Rooms, Toilet, Parking",
    "enriched": true
  },
  {
    "name": "Bayly Road",
    "url": "https://se.kiteforum.com/kitesurf/spot/Bayly_Road",
    "slug": "Bayly_Road",
    "country": "New+Zealand",
    "lat": -39.2427,
    "lng": 173.7758,
    "wind_direction": "N, NNE, NE, SE, SSE, S",
    "water_type": "Medium wave",
    "difficulty": "Expert",
    "amenities": "Parking",
    "enriched": true
  },
  {
    "name": "Bayswater Sand Spit",
    "url": "https://se.kiteforum.com/kitesurf/spot/Bayswater_Sand_Spit",
    "slug": "Bayswater_Sand_Spit",
    "country": "New+Zealand",
    "lat": -36.8132,
    "lng": 174.7711,
    "wind_direction": "NE, WSW, W, WNW",
    "water_type": "Shallow, Flat",
    "difficulty": "Beginner, Intermediate, Expert",
    "amenities": "Shower, Parking",
    "enriched": true
  },
  {
    "name": "Beach Break",
    "url": "https://se.kiteforum.com/kitesurf/spot/Beach_Break",
    "slug": "Beach_Break",
    "country": "Netherlands",
    "lat": 52.2531,
    "lng": 4.4359,
    "wind_direction": "N, NNE, SW, WSW, W, WNW, NW, NNW",
    "water_type": "Medium wave",
    "difficulty": "Beginner, Intermediate, Expert",
    "amenities": "School, Shop, Rental, Shower, Toilet, Food, Parking",
    "enriched": true
  },
  {
    "name": "Beachen",
    "url": "https://se.kiteforum.com/kitesurf/spot/Beachen",
    "slug": "Beachen",
    "country": "Norway",
    "lat": 59.4219,
    "lng": 10.6349,
    "wind_direction": "SE, SSE, S",
    "water_type": "Flat, Medium wave",
    "difficulty": "Beginner, Intermediate, Expert",
    "amenities": "Parking",
    "enriched": true
  },
  {
    "name": "Bear Lake   North Beach",
    "url": "https://se.kiteforum.com/kitesurf/spot/Bear_Lake___North_Beach",
    "slug": "Bear_Lake___North_Beach",
    "country": "Idaho+(USA)",
    "lat": 42.1175,
    "lng": -111.2917,
    "wind_direction": "SE, SSE, S, SSW, SW",
    "water_type": "Flat, Chop, Small wave",
    "difficulty": "Beginner, Intermediate, Expert",
    "amenities": "Parking",
    "enriched": true
  },
  {
    "name": "Behrensdorf",
    "url": "https://se.kiteforum.com/spot/behrensdorf",
    "slug": "behrensdorf",
    "country": "Germany",
    "lat": 54.3583,
    "lng": 10.6119,
    "wind_direction": "No information",
    "water_type": "Small wave",
    "difficulty": "No information",
    "amenities": "Toilet, Food",
    "enriched": true
  },
  {
    "name": "Belderra Strand",
    "url": "https://se.kiteforum.com/kitesurf/spot/Belderra_Strand",
    "slug": "Belderra_Strand",
    "country": "Ireland",
    "lat": 54.2086,
    "lng": -10.0635,
    "wind_direction": "W, WNW, NW, NNW",
    "water_type": "Small wave, Medium wave, Big wave",
    "difficulty": "Intermediate, Expert",
    "amenities": "Parking",
    "enriched": true
  },
  {
    "name": "Belhaven Bay",
    "url": "https://se.kiteforum.com/kitesurf/spot/Belhaven_Bay",
    "slug": "Belhaven_Bay",
    "country": "Scotland+(UK)",
    "lat": 56.0063,
    "lng": -2.562,
    "wind_direction": "N, E, NW, NNW",
    "water_type": "Shallow, Flat, Chop, Small wave, Medium wave",
    "difficulty": "Beginner, Intermediate, Expert",
    "amenities": "Toilet, Parking",
    "enriched": true
  },
  {
    "name": "Belio Lake",
    "url": "https://se.kiteforum.com/kitesurf/spot/Belio_Lake",
    "slug": "Belio_Lake",
    "country": "Russia",
    "lat": 54.6498,
    "lng": 90.1706,
    "wind_direction": "W, WNW, NW",
    "water_type": "Flat, Chop",
    "difficulty": "Beginner, Intermediate, Expert",
    "amenities": "No information",
    "enriched": true
  },
  {
    "name": "Bellevue Beach",
    "url": "https://se.kiteforum.com/kitesurf/spot/Bellevue_Beach",
    "slug": "Bellevue_Beach",
    "country": "Canada",
    "lat": 47.634,
    "lng": -53.7637,
    "wind_direction": "SE, SSE, S, SSW, SW, WSW, W, WNW, NW",
    "water_type": "Flat, Chop, Small wave, Medium wave",
    "difficulty": "Beginner, Intermediate, Expert",
    "amenities": "Camping, Toilet, Parking",
    "enriched": true
  },
  {
    "name": "Belmullet",
    "url": "https://se.kiteforum.com/kitesurf/spot/Belmullet",
    "slug": "Belmullet",
    "country": "Ireland",
    "lat": 54.224,
    "lng": -10.0561,
    "wind_direction": "No information",
    "water_type": "Medium wave, Big wave",
    "difficulty": "Intermediate, Expert",
    "amenities": "No information",
    "enriched": true
  },
  {
    "name": "Benavides",
    "url": "https://se.kiteforum.com/kitesurf/spot/Benavides",
    "slug": "Benavides",
    "country": "Spain",
    "lat": 36.0597,
    "lng": -5.7131,
    "wind_direction": "E, W",
    "water_type": "Small wave, Medium wave",
    "difficulty": "Intermediate, Expert",
    "amenities": "None",
    "enriched": true
  },
  {
    "name": "Bergkvara",
    "url": "https://se.kiteforum.com/kitesurf/spot/Bergkvara",
    "slug": "Bergkvara",
    "country": "Sweden",
    "lat": 56.3781,
    "lng": 16.0921,
    "wind_direction": "No information",
    "water_type": "Flat",
    "difficulty": "Beginner, Intermediate, Expert",
    "amenities": "Shower, Toilet, Parking",
    "enriched": true
  },
  {
    "name": "Berkeley Island County Park",
    "url": "https://se.kiteforum.com/kitesurf/spot/Berkeley_Island_County_Park",
    "slug": "Berkeley_Island_County_Park",
    "country": "New+Jersey+(USA)",
    "lat": 39.8734,
    "lng": -74.1312,
    "wind_direction": "NE, ESE, SE, SSE",
    "water_type": "Flat, Chop",
    "difficulty": "Intermediate, Expert",
    "amenities": "Parking",
    "enriched": true
  },
  {
    "name": "Berzciems",
    "url": "https://se.kiteforum.com/kitesurf/spot/Berzciems",
    "slug": "Berzciems",
    "country": "Latvia",
    "lat": 57.2459,
    "lng": 23.1754,
    "wind_direction": "SW, WSW, W, WNW, NW",
    "water_type": "Shallow, Flat",
    "difficulty": "Beginner, Intermediate, Expert",
    "amenities": "Parking",
    "enriched": true
  },
  {
    "name": "Bethells Beach",
    "url": "https://se.kiteforum.com/kitesurf/spot/Bethells_Beach",
    "slug": "Bethells_Beach",
    "country": "New+Zealand",
    "lat": -36.8929,
    "lng": 174.4431,
    "wind_direction": "SW",
    "water_type": "Medium wave",
    "difficulty": "Intermediate, Expert",
    "amenities": "No information",
    "enriched": true
  },
  {
    "name": "Betty s Bay",
    "url": "https://se.kiteforum.com/kitesurf/spot/Betty_s_Bay",
    "slug": "Betty_s_Bay",
    "country": "South+Africa",
    "lat": -34.3591,
    "lng": 18.9063,
    "wind_direction": "SE, SSE, S, SSW, SW",
    "water_type": "Medium wave",
    "difficulty": "Intermediate, Expert",
    "amenities": "Parking",
    "enriched": true
  },
  {
    "name": "Beverly Beach",
    "url": "https://se.kiteforum.com/kitesurf/spot/Beverly_Beach",
    "slug": "Beverly_Beach",
    "country": "Oregon+(USA)",
    "lat": 44.7264,
    "lng": -124.0585,
    "wind_direction": "N, NW, NNW",
    "water_type": "Small wave, Medium wave",
    "difficulty": "Intermediate, Expert",
    "amenities": "Parking",
    "enriched": true
  },
  {
    "name": "Bex d Andaine",
    "url": "https://se.kiteforum.com/kitesurf/spot/Bex_d_Andaine",
    "slug": "Bex_d_Andaine",
    "country": "France",
    "lat": 48.6866,
    "lng": -1.5037,
    "wind_direction": "SW, W, NW",
    "water_type": "Shallow, Flat",
    "difficulty": "Beginner, Intermediate, Expert",
    "amenities": "Parking",
    "enriched": true
  },
  {
    "name": "Big Manly",
    "url": "https://se.kiteforum.com/kitesurf/spot/Big_Manly",
    "slug": "Big_Manly",
    "country": "New+Zealand",
    "lat": -36.6281,
    "lng": 174.7581,
    "wind_direction": "NE, NW",
    "water_type": "Chop",
    "difficulty": "Beginner, Intermediate, Expert",
    "amenities": "Parking",
    "enriched": true
  },
  {
    "name": "Bilene",
    "url": "https://se.kiteforum.com/kitesurf/spot/Bilene",
    "slug": "Bilene",
    "country": "Mozambique",
    "lat": -25.2849,
    "lng": 33.2569,
    "wind_direction": "NE, SE, SW",
    "water_type": "Shallow, Flat, Chop",
    "difficulty": "Beginner, Intermediate, Expert",
    "amenities": "Toilet, Food, Parking",
    "enriched": true
  },
  {
    "name": "Biloxi",
    "url": "https://se.kiteforum.com/kitesurf/spot/Biloxi",
    "slug": "Biloxi",
    "country": "Mississippi+(USA)",
    "lat": 30.3927,
    "lng": -88.9361,
    "wind_direction": "SE",
    "water_type": "Chop, Small wave",
    "difficulty": "Beginner, Intermediate, Expert",
    "amenities": "Rooms, Parking",
    "enriched": true
  },
  {
    "name": "Bilstranden Mellbystrand",
    "url": "https://se.kiteforum.com/spot/bilstranden_mellbystrand",
    "slug": "bilstranden_mellbystrand",
    "country": "Sweden",
    "lat": 56.5047,
    "lng": 12.9402,
    "wind_direction": "SW, WSW, W, WNW, NW",
    "water_type": "Shallow, Flat, Chop, Small wave",
    "difficulty": "Beginner, Intermediate, Expert",
    "amenities": "Parking",
    "enriched": true
  },
  {
    "name": "Bintan   Nirwana Garden",
    "url": "https://se.kiteforum.com/kitesurf/spot/Bintan___Nirwana_Garden",
    "slug": "Bintan___Nirwana_Garden",
    "country": "Indonesia",
    "lat": 1.1797,
    "lng": 104.3145,
    "wind_direction": "NE",
    "water_type": "Shallow, Flat, Chop, Small wave",
    "difficulty": "Beginner, Intermediate, Expert",
    "amenities": "Shop, Rescue, Shower, Toilet, Food, Parking",
    "enriched": true
  },
  {
    "name": "Bjellanstrand",
    "url": "https://se.kiteforum.com/spot/Bjellanstrand",
    "slug": "Bjellanstrand",
    "country": "Norway",
    "lat": 58.4561,
    "lng": 8.8851,
    "wind_direction": "No information",
    "water_type": "Flat, Chop, Small wave",
    "difficulty": "Intermediate, Expert",
    "amenities": "Parking",
    "enriched": true
  },
  {
    "name": "Bjoerkaeng",
    "url": "https://se.kiteforum.com/spot/Bjoerkaeng",
    "slug": "Bjoerkaeng",
    "country": "Sweden",
    "lat": 57.0075,
    "lng": 12.3485,
    "wind_direction": "SSE, S, SSW, SW, WSW, W, WNW, NW",
    "water_type": "Shallow, Flat, Chop",
    "difficulty": "Beginner, Intermediate, Expert",
    "amenities": "Camping, Shower, Toilet, Food, Parking",
    "enriched": true
  },
  {
    "name": "Bjoerkenaes Camping",
    "url": "https://se.kiteforum.com/kitesurf/spot/Bjoerkenaes_Camping",
    "slug": "Bjoerkenaes_Camping",
    "country": "Sweden",
    "lat": 56.1605,
    "lng": 15.9232,
    "wind_direction": "NE, ENE, E, ESE, SE, SSE, S",
    "water_type": "Chop",
    "difficulty": "Beginner, Intermediate, Expert",
    "amenities": "Rooms, Camping, Shower, Toilet, Food, Parking",
    "enriched": true
  },
  {
    "name": "Black Rockae",
    "url": "https://se.kiteforum.com/kitesurf/spot/Black_Rockae",
    "slug": "Black_Rockae",
    "country": "South+Africa",
    "lat": -30.2686,
    "lng": 30.764,
    "wind_direction": "NE",
    "water_type": "Medium wave",
    "difficulty": "Intermediate, Expert",
    "amenities": "No information",
    "enriched": true
  },
  {
    "name": "Blavand",
    "url": "https://se.kiteforum.com/spot/bl__vand",
    "slug": "bl__vand",
    "country": "Denmark",
    "lat": 55.549,
    "lng": 8.1114,
    "wind_direction": "E, ESE, SE, SSE, S, SSW, SW, WSW, W",
    "water_type": "Chop, Small wave, Medium wave",
    "difficulty": "Beginner, Intermediate, Expert",
    "amenities": "Rooms, Camping, School, Shop, Shower, Toilet, Food, Parking",
    "enriched": true
  },
  {
    "name": "Block Island   Great Salt Pond",
    "url": "https://se.kiteforum.com/kitesurf/spot/Block_Island___Great_Salt_Pond",
    "slug": "Block_Island___Great_Salt_Pond",
    "country": "Rhode+Island+(USA)",
    "lat": 41.2001,
    "lng": -71.5751,
    "wind_direction": "NE, SE, S, SSW, SW, WSW, W",
    "water_type": "Shallow, Flat",
    "difficulty": "Beginner, Intermediate, Expert",
    "amenities": "None",
    "enriched": true
  },
  {
    "name": "Block Island   Mansion Beach",
    "url": "https://se.kiteforum.com/kitesurf/spot/Block_Island___Mansion_Beach",
    "slug": "Block_Island___Mansion_Beach",
    "country": "Rhode+Island+(USA)",
    "lat": 41.1972,
    "lng": -71.5638,
    "wind_direction": "NE, SE",
    "water_type": "Medium wave",
    "difficulty": "Intermediate, Expert",
    "amenities": "No information",
    "enriched": true
  },
  {
    "name": "Blokhus Strand",
    "url": "https://se.kiteforum.com/spot/blokhus_strand",
    "slug": "blokhus_strand",
    "country": "Denmark",
    "lat": 57.254,
    "lng": 9.578,
    "wind_direction": "N, SW, WSW, W, NNW",
    "water_type": "Chop, Medium wave",
    "difficulty": "Beginner, Intermediate, Expert",
    "amenities": "Rescue, Toilet, Food, Parking",
    "enriched": true
  },
  {
    "name": "Blue Azul Lagoon",
    "url": "https://se.kiteforum.com/kitesurf/spot/Blue_Azul_Lagoon",
    "slug": "Blue_Azul_Lagoon",
    "country": "Brazil",
    "lat": -2.8514,
    "lng": -40.4389,
    "wind_direction": "NE",
    "water_type": "Shallow, Flat",
    "difficulty": "Beginner, Intermediate, Expert",
    "amenities": "Toilet, Food, Parking",
    "enriched": true
  },
  {
    "name": "Blue Lagoon4f",
    "url": "https://se.kiteforum.com/kitesurf/spot/Blue_Lagoon4f",
    "slug": "Blue_Lagoon4f",
    "country": "Philippines",
    "lat": 18.6232,
    "lng": 120.8588,
    "wind_direction": "NE",
    "water_type": "Small wave",
    "difficulty": "Intermediate, Expert",
    "amenities": "Rooms, Food, Parking",
    "enriched": true
  },
  {
    "name": "Blue Venado",
    "url": "https://se.kiteforum.com/kitesurf/spot/Blue_Venado",
    "slug": "Blue_Venado",
    "country": "Mexico",
    "lat": 20.547,
    "lng": -87.1571,
    "wind_direction": "NE, SE",
    "water_type": "Shallow, Flat, Small wave",
    "difficulty": "Beginner, Intermediate, Expert",
    "amenities": "Camping, School, Shop, Rental, Rescue, Shower, Toilet, Food, Parking",
    "enriched": true
  },
  {
    "name": "Boa Vista   Buccaneers Beach",
    "url": "https://se.kiteforum.com/kitesurf/spot/Boa_Vista___Buccaneers_Beach",
    "slug": "Boa_Vista___Buccaneers_Beach",
    "country": "Cape+Verde",
    "lat": 16.1607,
    "lng": -22.9091,
    "wind_direction": "NE",
    "water_type": "Flat, Chop, Small wave, Medium wave",
    "difficulty": "Beginner, Intermediate, Expert",
    "amenities": "School, Shop, Repair, Rental, Rescue, Shower, Toilet",
    "enriched": true
  },
  {
    "name": "Boa Vista   Ponta Antonia",
    "url": "https://se.kiteforum.com/kitesurf/spot/Boa_Vista___Ponta_Antonia",
    "slug": "Boa_Vista___Ponta_Antonia",
    "country": "Cape+Verde",
    "lat": 16.2209,
    "lng": -22.776,
    "wind_direction": "NE",
    "water_type": "Flat, Chop, Small wave, Medium wave",
    "difficulty": "Beginner, Intermediate, Expert",
    "amenities": "None",
    "enriched": true
  },
  {
    "name": "Boa Vista   Shipwrecks",
    "url": "https://se.kiteforum.com/kitesurf/spot/Boa_Vista___Shipwrecks",
    "slug": "Boa_Vista___Shipwrecks",
    "country": "Cape+Verde",
    "lat": 16.2025,
    "lng": -22.8624,
    "wind_direction": "NE",
    "water_type": "Small wave, Medium wave",
    "difficulty": "Intermediate, Expert",
    "amenities": "None",
    "enriched": true
  },
  {
    "name": "Boatgarden",
    "url": "https://se.kiteforum.com/kitesurf/spot/Boatgarden",
    "slug": "Boatgarden",
    "country": "Sweden",
    "lat": 58.5233,
    "lng": 13.1331,
    "wind_direction": "NNE, NE, ENE, E",
    "water_type": "Shallow, Flat, Chop, Small wave",
    "difficulty": "Beginner, Intermediate",
    "amenities": "Parking",
    "enriched": true
  },
  {
    "name": "Boca Paila",
    "url": "https://se.kiteforum.com/kitesurf/spot/Boca_Paila",
    "slug": "Boca_Paila",
    "country": "Mexico",
    "lat": 20.0038,
    "lng": -87.477,
    "wind_direction": "N, NNE, NE, ENE, E, ESE, SE",
    "water_type": "Chop, Small wave",
    "difficulty": "Beginner, Intermediate, Expert",
    "amenities": "No information",
    "enriched": true
  },
  {
    "name": "Boca Raton South beach",
    "url": "https://se.kiteforum.com/kitesurf/spot/Boca_Raton_South_beach",
    "slug": "Boca_Raton_South_beach",
    "country": "Florida+(USA)",
    "lat": 26.3514,
    "lng": -80.0693,
    "wind_direction": "N, NNE, NE, SE, SSE, S",
    "water_type": "Shallow, Medium wave",
    "difficulty": "Intermediate, Expert",
    "amenities": "Rooms, Shower, Toilet, Parking",
    "enriched": true
  },
  {
    "name": "Boca Reservoir",
    "url": "https://se.kiteforum.com/kitesurf/spot/Boca_Reservoir",
    "slug": "Boca_Reservoir",
    "country": "California+(USA)",
    "lat": 39.4032,
    "lng": -120.0903,
    "wind_direction": "No information",
    "water_type": "Flat, Chop",
    "difficulty": "Beginner, Intermediate, Expert",
    "amenities": "Camping, Parking",
    "enriched": true
  },
  {
    "name": "Boca de Iguana",
    "url": "https://se.kiteforum.com/kitesurf/spot/Boca_de_Iguana",
    "slug": "Boca_de_Iguana",
    "country": "Mexico",
    "lat": 19.306,
    "lng": -104.8165,
    "wind_direction": "No information",
    "water_type": "Flat, Small wave",
    "difficulty": "Beginner, Intermediate, Expert",
    "amenities": "Food, Parking",
    "enriched": true
  },
  {
    "name": "Boca de Pascuales",
    "url": "https://se.kiteforum.com/kitesurf/spot/Boca_de_Pascuales",
    "slug": "Boca_de_Pascuales",
    "country": "Mexico",
    "lat": 18.8563,
    "lng": -103.962,
    "wind_direction": "No information",
    "water_type": "Medium wave, Big wave",
    "difficulty": "Intermediate, Expert",
    "amenities": "Rooms, Shower, Toilet, Food, Parking",
    "enriched": true
  },
  {
    "name": "Bodega Bay",
    "url": "https://se.kiteforum.com/kitesurf/spot/Bodega_Bay",
    "slug": "Bodega_Bay",
    "country": "California+(USA)",
    "lat": 38.3246,
    "lng": -123.0398,
    "wind_direction": "SW, WSW, W, WNW, NW",
    "water_type": "Shallow, Flat, Small wave",
    "difficulty": "Beginner, Intermediate, Expert",
    "amenities": "Toilet, Food, Parking",
    "enriched": true
  },